{
"type": "FeatureCollection",
                                                                                
"features": [
{ "type": "Feature", "properties": { "NAME": "ANDKHOY", "COUNTRY": "AFGHANISTAN", "ADDTLPLACE": "ANDKHOI", "AIRPORTCOD": "OYV", "XCOORD": 65.21667, "YCOORD": 36.93333 }, "geometry": { "type": "Point", "coordinates": [ 65.216670119999989, 36.93332997 ] } }
,
{ "type": "Feature", "properties": { "NAME": "AQCHEH", "COUNTRY": "AFGHANISTAN", "ADDTLPLACE": null, "AIRPORTCOD": "QHL", "XCOORD": 66.18333, "YCOORD": 36.93333 }, "geometry": { "type": "Point", "coordinates": [ 66.183329879999988, 36.93332997 ] } }
,
{ "type": "Feature", "properties": { "NAME": "ASMAR", "COUNTRY": "AFGHANISTAN", "ADDTLPLACE": null, "AIRPORTCOD": null, "XCOORD": 71.43333, "YCOORD": 35.01667 }, "geometry": { "type": "Point", "coordinates": [ 71.43333012, 35.01666999 ] } }
,
{ "type": "Feature", "properties": { "NAME": "BAGHLAN-FARM", "COUNTRY": "AFGHANISTAN", "ADDTLPLACE": null, "AIRPORTCOD": null, "XCOORD": 68.65, "YCOORD": 36.1 }, "geometry": { "type": "Point", "coordinates": [ 68.64999984, 36.09999999 ] } }
,
{ "type": "Feature", "properties": { "NAME": "BAMIYAN", "COUNTRY": "AFGHANISTAN", "ADDTLPLACE": null, "AIRPORTCOD": "BIN", "XCOORD": 67.81667, "YCOORD": 34.8 }, "geometry": { "type": "Point", "coordinates": [ 67.81667004, 34.80000003 ] } }
,
{ "type": "Feature", "properties": { "NAME": "BEHSOOD", "COUNTRY": "AFGHANISTAN", "ADDTLPLACE": null, "AIRPORTCOD": null, "XCOORD": 67.85, "YCOORD": 34.3 }, "geometry": { "type": "Point", "coordinates": [ 67.84999992, 34.29999999 ] } }
,
{ "type": "Feature", "properties": { "NAME": "BOST", "COUNTRY": "AFGHANISTAN", "ADDTLPLACE": null, "AIRPORTCOD": "BST", "XCOORD": 64.36667, "YCOORD": 31.55 }, "geometry": { "type": "Point", "coordinates": [ 64.36667016, 31.55000004 ] } }
,
{ "type": "Feature", "properties": { "NAME": "CHAKCHARAN", "COUNTRY": "AFGHANISTAN", "ADDTLPLACE": null, "AIRPORTCOD": "CCN", "XCOORD": 65.26667, "YCOORD": 34.53333 }, "geometry": { "type": "Point", "coordinates": [ 65.26667016, 34.53333003 ] } }
,
{ "type": "Feature", "properties": { "NAME": "DARWAZ", "COUNTRY": "AFGHANISTAN", "ADDTLPLACE": null, "AIRPORTCOD": "DAZ", "XCOORD": 70.88333, "YCOORD": 38.46667 }, "geometry": { "type": "Point", "coordinates": [ 70.88333004, 38.46666996 ] } }
,
{ "type": "Feature", "properties": { "NAME": "DESHOO", "COUNTRY": "AFGHANISTAN", "ADDTLPLACE": null, "AIRPORTCOD": null, "XCOORD": 63.3, "YCOORD": 30.43333 }, "geometry": { "type": "Point", "coordinates": [ 63.29999988, 30.43332999 ] } }
,
{ "type": "Feature", "properties": { "NAME": "FAIZABAD", "COUNTRY": "AFGHANISTAN", "ADDTLPLACE": null, "AIRPORTCOD": "FBD", "XCOORD": 70.51667, "YCOORD": 37.11667 }, "geometry": { "type": "Point", "coordinates": [ 70.51667004, 37.11666996 ] } }
,
{ "type": "Feature", "properties": { "NAME": "FARAH", "COUNTRY": "AFGHANISTAN", "ADDTLPLACE": null, "AIRPORTCOD": "FAH", "XCOORD": 62.16667, "YCOORD": 32.36667 }, "geometry": { "type": "Point", "coordinates": [ 62.16666984, 32.36667003 ] } }
,
{ "type": "Feature", "properties": { "NAME": "GARDEZ", "COUNTRY": "AFGHANISTAN", "ADDTLPLACE": null, "AIRPORTCOD": "GRG", "XCOORD": 69.23333, "YCOORD": 33.61667 }, "geometry": { "type": "Point", "coordinates": [ 69.23333016, 33.61667004 ] } }
,
{ "type": "Feature", "properties": { "NAME": "GHAZIABAD", "COUNTRY": "AFGHANISTAN", "ADDTLPLACE": null, "AIRPORTCOD": null, "XCOORD": 70.76667, "YCOORD": 34.31667 }, "geometry": { "type": "Point", "coordinates": [ 70.76666988, 34.31666997 ] } }
,
{ "type": "Feature", "properties": { "NAME": "GHAZNI", "COUNTRY": "AFGHANISTAN", "ADDTLPLACE": null, "AIRPORTCOD": "GZI", "XCOORD": 68.41667, "YCOORD": 33.53333 }, "geometry": { "type": "Point", "coordinates": [ 68.41667016, 33.53333004 ] } }
,
{ "type": "Feature", "properties": { "NAME": "GHELMEEN", "COUNTRY": "AFGHANISTAN", "ADDTLPLACE": null, "AIRPORTCOD": null, "XCOORD": 65.3, "YCOORD": 34.88333 }, "geometry": { "type": "Point", "coordinates": [ 65.30000004, 34.88333004 ] } }
,
{ "type": "Feature", "properties": { "NAME": "GULISTAN", "COUNTRY": "AFGHANISTAN", "ADDTLPLACE": null, "AIRPORTCOD": null, "XCOORD": 63.66667, "YCOORD": 32.61667 }, "geometry": { "type": "Point", "coordinates": [ 63.66666996, 32.61666996 ] } }
,
{ "type": "Feature", "properties": { "NAME": "HAJIGAK", "COUNTRY": "AFGHANISTAN", "ADDTLPLACE": null, "AIRPORTCOD": null, "XCOORD": 68.1, "YCOORD": 34.58333 }, "geometry": { "type": "Point", "coordinates": [ 68.10000012, 34.58332998 ] } }
,
{ "type": "Feature", "properties": { "NAME": "HERAT", "COUNTRY": "AFGHANISTAN", "ADDTLPLACE": null, "AIRPORTCOD": "HEA", "XCOORD": 62.23333, "YCOORD": 34.2 }, "geometry": { "type": "Point", "coordinates": [ 62.23332996, 34.2 ] } }
,
{ "type": "Feature", "properties": { "NAME": "ISKACHEM\/ESHKASHEM", "COUNTRY": "AFGHANISTAN", "ADDTLPLACE": null, "AIRPORTCOD": null, "XCOORD": 71.56667, "YCOORD": 36.7 }, "geometry": { "type": "Point", "coordinates": [ 71.56667016, 36.70000002 ] } }
,
{ "type": "Feature", "properties": { "NAME": "ISLAM-QALA", "COUNTRY": "AFGHANISTAN", "ADDTLPLACE": null, "AIRPORTCOD": null, "XCOORD": 61.58333, "YCOORD": 34.65 }, "geometry": { "type": "Point", "coordinates": [ 61.58333016, 34.65 ] } }
,
{ "type": "Feature", "properties": { "NAME": "JABUL-SARAJ", "COUNTRY": "AFGHANISTAN", "ADDTLPLACE": null, "AIRPORTCOD": null, "XCOORD": 69.25, "YCOORD": 35.13333 }, "geometry": { "type": "Point", "coordinates": [ 69.24999996, 35.13332997 ] } }
,
{ "type": "Feature", "properties": { "NAME": "JALALABAD", "COUNTRY": "AFGHANISTAN", "ADDTLPLACE": "JALALABAD (MIL)", "AIRPORTCOD": "JAA", "XCOORD": 70.5, "YCOORD": 34.4 }, "geometry": { "type": "Point", "coordinates": [ 70.49999988, 34.39999998 ] } }
,
{ "type": "Feature", "properties": { "NAME": "KABUL (KHABUL)", "COUNTRY": "AFGHANISTAN", "ADDTLPLACE": "KABUL INTL (MIL)", "AIRPORTCOD": "KBL", "XCOORD": 69.21667, "YCOORD": 34.56667 }, "geometry": { "type": "Point", "coordinates": [ 69.21667008, 34.56666999 ] } }
,
{ "type": "Feature", "properties": { "NAME": "KAJAKI", "COUNTRY": "AFGHANISTAN", "ADDTLPLACE": null, "AIRPORTCOD": null, "XCOORD": 65.1, "YCOORD": 32.16667 }, "geometry": { "type": "Point", "coordinates": [ 65.09999988, 32.16666996 ] } }
,
{ "type": "Feature", "properties": { "NAME": "KALAT", "COUNTRY": "AFGHANISTAN", "ADDTLPLACE": null, "AIRPORTCOD": null, "XCOORD": 66.9, "YCOORD": 32.11667 }, "geometry": { "type": "Point", "coordinates": [ 66.89999988, 32.11667001 ] } }
,
{ "type": "Feature", "properties": { "NAME": "KALDAR", "COUNTRY": "AFGHANISTAN", "ADDTLPLACE": null, "AIRPORTCOD": null, "XCOORD": 67.73333, "YCOORD": 37.2 }, "geometry": { "type": "Point", "coordinates": [ 67.73333004, 37.19999997 ] } }
,
{ "type": "Feature", "properties": { "NAME": "KANDAHAR", "COUNTRY": "AFGHANISTAN", "ADDTLPLACE": "KANDAHAR INTL ARPT", "AIRPORTCOD": "KDH", "XCOORD": 65.2, "YCOORD": 31.5 }, "geometry": { "type": "Point", "coordinates": [ 65.19999996, 31.5 ] } }
,
{ "type": "Feature", "properties": { "NAME": "KESHM", "COUNTRY": "AFGHANISTAN", "ADDTLPLACE": null, "AIRPORTCOD": null, "XCOORD": 70.08333, "YCOORD": 36.85 }, "geometry": { "type": "Point", "coordinates": [ 70.08333012, 36.84999996 ] } }
,
{ "type": "Feature", "properties": { "NAME": "KHOST", "COUNTRY": "AFGHANISTAN", "ADDTLPLACE": null, "AIRPORTCOD": null, "XCOORD": 69.95, "YCOORD": 33.35 }, "geometry": { "type": "Point", "coordinates": [ 69.95000016, 33.35000004 ] } }
,
{ "type": "Feature", "properties": { "NAME": "KHWAHAN", "COUNTRY": "AFGHANISTAN", "ADDTLPLACE": null, "AIRPORTCOD": "KWH", "XCOORD": 70.2, "YCOORD": 37.88333 }, "geometry": { "type": "Point", "coordinates": [ 70.2, 37.88333001 ] } }
,
{ "type": "Feature", "properties": { "NAME": "KUNDUZ", "COUNTRY": "AFGHANISTAN", "ADDTLPLACE": null, "AIRPORTCOD": "UND", "XCOORD": 68.91667, "YCOORD": 36.66667 }, "geometry": { "type": "Point", "coordinates": [ 68.91666984, 36.66666996 ] } }
,
{ "type": "Feature", "properties": { "NAME": "LAGHMAN", "COUNTRY": "AFGHANISTAN", "ADDTLPLACE": null, "AIRPORTCOD": null, "XCOORD": 70.21667, "YCOORD": 34.65 }, "geometry": { "type": "Point", "coordinates": [ 70.21667016, 34.65 ] } }
,
{ "type": "Feature", "properties": { "NAME": "LAL", "COUNTRY": "AFGHANISTAN", "ADDTLPLACE": null, "AIRPORTCOD": null, "XCOORD": 66.3, "YCOORD": 34.5 }, "geometry": { "type": "Point", "coordinates": [ 66.30000012, 34.49999997 ] } }
,
{ "type": "Feature", "properties": { "NAME": "LOGAR", "COUNTRY": "AFGHANISTAN", "ADDTLPLACE": null, "AIRPORTCOD": null, "XCOORD": 69.05, "YCOORD": 34.1 }, "geometry": { "type": "Point", "coordinates": [ 69.05000016, 34.10000001 ] } }
,
{ "type": "Feature", "properties": { "NAME": "MAIMANA", "COUNTRY": "AFGHANISTAN", "ADDTLPLACE": "MAIMANA\/MIMANA", "AIRPORTCOD": "MMZ", "XCOORD": 64.73333, "YCOORD": 35.91667 }, "geometry": { "type": "Point", "coordinates": [ 64.73333016, 35.91666999 ] } }
,
{ "type": "Feature", "properties": { "NAME": "MAZAR-I-SHARIF", "COUNTRY": "AFGHANISTAN", "ADDTLPLACE": null, "AIRPORTCOD": "MZR", "XCOORD": 67.21667, "YCOORD": 36.7 }, "geometry": { "type": "Point", "coordinates": [ 67.21666992, 36.70000002 ] } }
,
{ "type": "Feature", "properties": { "NAME": "NIMROZ", "COUNTRY": "AFGHANISTAN", "ADDTLPLACE": null, "AIRPORTCOD": "IMZ", "XCOORD": 61.93333, "YCOORD": 31.1 }, "geometry": { "type": "Point", "coordinates": [ 61.93333008, 31.10000004 ] } }
,
{ "type": "Feature", "properties": { "NAME": "OBE", "COUNTRY": "AFGHANISTAN", "ADDTLPLACE": null, "AIRPORTCOD": null, "XCOORD": 63.15, "YCOORD": 34.36667 }, "geometry": { "type": "Point", "coordinates": [ 63.15000012, 34.36667001 ] } }
,
{ "type": "Feature", "properties": { "NAME": "PAGHMAN", "COUNTRY": "AFGHANISTAN", "ADDTLPLACE": null, "AIRPORTCOD": null, "XCOORD": 68.98333, "YCOORD": 34.58333 }, "geometry": { "type": "Point", "coordinates": [ 68.98332996, 34.58332998 ] } }
,
{ "type": "Feature", "properties": { "NAME": "PAN JAO", "COUNTRY": "AFGHANISTAN", "ADDTLPLACE": null, "AIRPORTCOD": null, "XCOORD": 67.03333, "YCOORD": 34.38333 }, "geometry": { "type": "Point", "coordinates": [ 67.03332984, 34.38333 ] } }
,
{ "type": "Feature", "properties": { "NAME": "QADES", "COUNTRY": "AFGHANISTAN", "ADDTLPLACE": null, "AIRPORTCOD": null, "XCOORD": 63.41667, "YCOORD": 34.8 }, "geometry": { "type": "Point", "coordinates": [ 63.41667012, 34.80000003 ] } }
,
{ "type": "Feature", "properties": { "NAME": "QAISAR", "COUNTRY": "AFGHANISTAN", "ADDTLPLACE": null, "AIRPORTCOD": null, "XCOORD": 64.26667, "YCOORD": 35.66667 }, "geometry": { "type": "Point", "coordinates": [ 64.26667008, 35.66666997 ] } }
,
{ "type": "Feature", "properties": { "NAME": "QALA-NAU", "COUNTRY": "AFGHANISTAN", "ADDTLPLACE": "QALA-I-NOW", "AIRPORTCOD": "LQN", "XCOORD": 63.11667, "YCOORD": 34.98333 }, "geometry": { "type": "Point", "coordinates": [ 63.11666988, 34.98333003 ] } }
,
{ "type": "Feature", "properties": { "NAME": "QAR-QIN", "COUNTRY": "AFGHANISTAN", "ADDTLPLACE": null, "AIRPORTCOD": null, "XCOORD": 66.08333, "YCOORD": 37.41667 }, "geometry": { "type": "Point", "coordinates": [ 66.083330159999988, 37.41667002 ] } }
,
{ "type": "Feature", "properties": { "NAME": "SAROBI", "COUNTRY": "AFGHANISTAN", "ADDTLPLACE": null, "AIRPORTCOD": null, "XCOORD": 69.75, "YCOORD": 34.58333 }, "geometry": { "type": "Point", "coordinates": [ 69.75, 34.58332998 ] } }
,
{ "type": "Feature", "properties": { "NAME": "SHEBIRGHAN", "COUNTRY": "AFGHANISTAN", "ADDTLPLACE": null, "AIRPORTCOD": null, "XCOORD": 65.71667, "YCOORD": 36.66667 }, "geometry": { "type": "Point", "coordinates": [ 65.71667016, 36.66666996 ] } }
,
{ "type": "Feature", "properties": { "NAME": "SHEGHNAN", "COUNTRY": "AFGHANISTAN", "ADDTLPLACE": "SHIGHNAN", "AIRPORTCOD": "SGA", "XCOORD": 71.5, "YCOORD": 37.56667 }, "geometry": { "type": "Point", "coordinates": [ 71.49999996, 37.56666996 ] } }
,
{ "type": "Feature", "properties": { "NAME": "SHINDAND", "COUNTRY": "AFGHANISTAN", "ADDTLPLACE": null, "AIRPORTCOD": null, "XCOORD": 62.28333, "YCOORD": 33.4 }, "geometry": { "type": "Point", "coordinates": [ 62.28333, 33.39999999 ] } }
,
{ "type": "Feature", "properties": { "NAME": "TALUQAN", "COUNTRY": "AFGHANISTAN", "ADDTLPLACE": null, "AIRPORTCOD": "TQN", "XCOORD": 69.53333, "YCOORD": 36.76667 }, "geometry": { "type": "Point", "coordinates": [ 69.53333004, 36.76667004 ] } }
,
{ "type": "Feature", "properties": { "NAME": "URGOON", "COUNTRY": "AFGHANISTAN", "ADDTLPLACE": null, "AIRPORTCOD": "URN", "XCOORD": 69.13333, "YCOORD": 32.91667 }, "geometry": { "type": "Point", "coordinates": [ 69.13333008, 32.91667002 ] } }
,
{ "type": "Feature", "properties": { "NAME": "WAZAKHAW", "COUNTRY": "AFGHANISTAN", "ADDTLPLACE": null, "AIRPORTCOD": null, "XCOORD": 68.35, "YCOORD": 32.2 }, "geometry": { "type": "Point", "coordinates": [ 68.34999996, 32.20000002 ] } }
,
{ "type": "Feature", "properties": { "NAME": "YANGI QALA", "COUNTRY": "AFGHANISTAN", "ADDTLPLACE": null, "AIRPORTCOD": null, "XCOORD": 69.66667, "YCOORD": 37.46667 }, "geometry": { "type": "Point", "coordinates": [ 69.666670079999989, 37.46666997 ] } }
,
{ "type": "Feature", "properties": { "NAME": "ZARANJ", "COUNTRY": "AFGHANISTAN", "ADDTLPLACE": null, "AIRPORTCOD": "ZAJ", "XCOORD": 61.85, "YCOORD": 31.0 }, "geometry": { "type": "Point", "coordinates": [ 61.85000016, 30.99999996 ] } }
,
{ "type": "Feature", "properties": { "NAME": "ZEBAK", "COUNTRY": "AFGHANISTAN", "ADDTLPLACE": null, "AIRPORTCOD": null, "XCOORD": 71.25, "YCOORD": 36.5 }, "geometry": { "type": "Point", "coordinates": [ 71.25000012, 36.50000004 ] } }
,
{ "type": "Feature", "properties": { "NAME": "TIRANA", "COUNTRY": "ALBANIA", "ADDTLPLACE": "RINAS", "AIRPORTCOD": "TIA", "XCOORD": 9.71667, "YCOORD": 41.41667 }, "geometry": { "type": "Point", "coordinates": [ 9.71667, 41.41666998 ] } }
,
{ "type": "Feature", "properties": { "NAME": "ADRAR", "COUNTRY": "ALGERIA", "ADDTLPLACE": "TOUAT", "AIRPORTCOD": "AZR", "XCOORD": 0.18333, "YCOORD": 27.83333 }, "geometry": { "type": "Point", "coordinates": [ 0.18333, 27.83332998 ] } }
,
{ "type": "Feature", "properties": { "NAME": "ALGIERS (ALGER)", "COUNTRY": "ALGERIA", "ADDTLPLACE": "DAR-EL-BEIDA\/HOUARI BOUMEDIENE", "AIRPORTCOD": "ALG", "XCOORD": 3.21667, "YCOORD": 36.7 }, "geometry": { "type": "Point", "coordinates": [ 3.21666984, 36.70000002 ] } }
,
{ "type": "Feature", "properties": { "NAME": "ANNABA", "COUNTRY": "ALGERIA", "ADDTLPLACE": "EL MELLAH", "AIRPORTCOD": "AAE", "XCOORD": 7.81667, "YCOORD": 36.81667 }, "geometry": { "type": "Point", "coordinates": [ 7.81666992, 36.81666999 ] } }
,
{ "type": "Feature", "properties": { "NAME": "AOULEF (AWLEF)", "COUNTRY": "ALGERIA", "ADDTLPLACE": "AOULEF", "AIRPORTCOD": "WAE", "XCOORD": 1.08333, "YCOORD": 26.96667 }, "geometry": { "type": "Point", "coordinates": [ 1.08333, 26.96667003 ] } }
,
{ "type": "Feature", "properties": { "NAME": "BATNA", "COUNTRY": "ALGERIA", "ADDTLPLACE": null, "AIRPORTCOD": "BLJ", "XCOORD": 6.16667, "YCOORD": 35.55 }, "geometry": { "type": "Point", "coordinates": [ 6.16667004, 35.55 ] } }
,
{ "type": "Feature", "properties": { "NAME": "BECHAR", "COUNTRY": "ALGERIA", "ADDTLPLACE": "OUAKDA\/LEGER", "AIRPORTCOD": "CBH", "XCOORD": -2.26667, "YCOORD": 31.65 }, "geometry": { "type": "Point", "coordinates": [ -2.26667016, 31.65000003 ] } }
,
{ "type": "Feature", "properties": { "NAME": "BEJAIA (BOUGIE)", "COUNTRY": "ALGERIA", "ADDTLPLACE": "SOUMMAM", "AIRPORTCOD": "BJA", "XCOORD": 5.06667, "YCOORD": 36.71667 }, "geometry": { "type": "Point", "coordinates": [ 5.06666988, 36.71667 ] } }
,
{ "type": "Feature", "properties": { "NAME": "BENI ABBES", "COUNTRY": "ALGERIA", "ADDTLPLACE": null, "AIRPORTCOD": "KBA", "XCOORD": -2.13333, "YCOORD": 30.13333 }, "geometry": { "type": "Point", "coordinates": [ -2.13333012, 30.13333002 ] } }
,
{ "type": "Feature", "properties": { "NAME": "BISKRA", "COUNTRY": "ALGERIA", "ADDTLPLACE": null, "AIRPORTCOD": "BSK", "XCOORD": 5.73333, "YCOORD": 34.8 }, "geometry": { "type": "Point", "coordinates": [ 5.73333012, 34.80000003 ] } }
,
{ "type": "Feature", "properties": { "NAME": "BORDJ OMAR DRISS", "COUNTRY": "ALGERIA", "ADDTLPLACE": null, "AIRPORTCOD": null, "XCOORD": 6.83333, "YCOORD": 28.13333 }, "geometry": { "type": "Point", "coordinates": [ 6.83332992, 28.13333004 ] } }
,
{ "type": "Feature", "properties": { "NAME": "BOU SAADA", "COUNTRY": "ALGERIA", "ADDTLPLACE": null, "AIRPORTCOD": "BUJ", "XCOORD": 4.18333, "YCOORD": 35.2 }, "geometry": { "type": "Point", "coordinates": [ 4.18332996, 35.19999999 ] } }
,
{ "type": "Feature", "properties": { "NAME": "CHLEF", "COUNTRY": "ALGERIA", "ADDTLPLACE": null, "AIRPORTCOD": null, "XCOORD": 1.33333, "YCOORD": 36.21667 }, "geometry": { "type": "Point", "coordinates": [ 1.33332984, 36.21666996 ] } }
,
{ "type": "Feature", "properties": { "NAME": "CONSTANTINE", "COUNTRY": "ALGERIA", "ADDTLPLACE": "AIN EL BEY", "AIRPORTCOD": "CZL", "XCOORD": 6.61667, "YCOORD": 36.28333 }, "geometry": { "type": "Point", "coordinates": [ 6.61667004, 36.28332999 ] } }
,
{ "type": "Feature", "properties": { "NAME": "DJANET", "COUNTRY": "ALGERIA", "ADDTLPLACE": "TISKA", "AIRPORTCOD": "DJG", "XCOORD": 9.48333, "YCOORD": 24.46667 }, "geometry": { "type": "Point", "coordinates": [ 9.48332988, 24.46667001 ] } }
,
{ "type": "Feature", "properties": { "NAME": "DJELFA\/TLETSI", "COUNTRY": "ALGERIA", "ADDTLPLACE": null, "AIRPORTCOD": null, "XCOORD": 3.25, "YCOORD": 34.68333 }, "geometry": { "type": "Point", "coordinates": [ 3.25000008, 34.68332997 ] } }
,
{ "type": "Feature", "properties": { "NAME": "EL GOLEA", "COUNTRY": "ALGERIA", "ADDTLPLACE": null, "AIRPORTCOD": "ELG", "XCOORD": 2.86667, "YCOORD": 30.56667 }, "geometry": { "type": "Point", "coordinates": [ 2.86666992, 30.56667003 ] } }
,
{ "type": "Feature", "properties": { "NAME": "EL OUED", "COUNTRY": "ALGERIA", "ADDTLPLACE": "GUEMAR", "AIRPORTCOD": "ELU", "XCOORD": 6.78333, "YCOORD": 33.51667 }, "geometry": { "type": "Point", "coordinates": [ 6.78332988, 33.51666996 ] } }
,
{ "type": "Feature", "properties": { "NAME": "GHARDAIA", "COUNTRY": "ALGERIA", "ADDTLPLACE": "NOUMERATE", "AIRPORTCOD": "GHA", "XCOORD": 3.81667, "YCOORD": 32.38333 }, "geometry": { "type": "Point", "coordinates": [ 3.81666996, 32.38333002 ] } }
,
{ "type": "Feature", "properties": { "NAME": "HASSI MESSAOUD", "COUNTRY": "ALGERIA", "ADDTLPLACE": "OUED IRARA", "AIRPORTCOD": "HME", "XCOORD": 6.15, "YCOORD": 31.66667 }, "geometry": { "type": "Point", "coordinates": [ 6.14999988, 31.66667001 ] } }
,
{ "type": "Feature", "properties": { "NAME": "ILLIZI", "COUNTRY": "ALGERIA", "ADDTLPLACE": "ILLIRANE", "AIRPORTCOD": "VVZ", "XCOORD": 8.41667, "YCOORD": 26.5 }, "geometry": { "type": "Point", "coordinates": [ 8.41667004, 26.49999996 ] } }
,
{ "type": "Feature", "properties": { "NAME": "IN GUEZZAM", "COUNTRY": "ALGERIA", "ADDTLPLACE": null, "AIRPORTCOD": "INF", "XCOORD": 5.7, "YCOORD": 19.53333 }, "geometry": { "type": "Point", "coordinates": [ 5.69999988, 19.53333 ] } }
,
{ "type": "Feature", "properties": { "NAME": "IN SALAH", "COUNTRY": "ALGERIA", "ADDTLPLACE": "IN SALAH NORTH", "AIRPORTCOD": "INZ", "XCOORD": 2.51667, "YCOORD": 27.25 }, "geometry": { "type": "Point", "coordinates": [ 2.51667, 27.25000002 ] } }
,
{ "type": "Feature", "properties": { "NAME": "JIJEL", "COUNTRY": "ALGERIA", "ADDTLPLACE": "TAHER", "AIRPORTCOD": "GJL", "XCOORD": 5.88333, "YCOORD": 36.8 }, "geometry": { "type": "Point", "coordinates": [ 5.88332988, 36.80000001 ] } }
,
{ "type": "Feature", "properties": { "NAME": "LAGHOUAT", "COUNTRY": "ALGERIA", "ADDTLPLACE": null, "AIRPORTCOD": "LOO", "XCOORD": 2.86667, "YCOORD": 33.81667 }, "geometry": { "type": "Point", "coordinates": [ 2.86666992, 33.81667002 ] } }
,
{ "type": "Feature", "properties": { "NAME": "MASCARA", "COUNTRY": "ALGERIA", "ADDTLPLACE": "GHRISS", "AIRPORTCOD": "MUW", "XCOORD": 0.15, "YCOORD": 35.26667 }, "geometry": { "type": "Point", "coordinates": [ 0.15000012, 35.26667001 ] } }
,
{ "type": "Feature", "properties": { "NAME": "MECHERIA", "COUNTRY": "ALGERIA", "ADDTLPLACE": null, "AIRPORTCOD": null, "XCOORD": -0.43333, "YCOORD": 34.93333 }, "geometry": { "type": "Point", "coordinates": [ -0.43332984, 34.93332999 ] } }
,
{ "type": "Feature", "properties": { "NAME": "ORAN", "COUNTRY": "ALGERIA", "ADDTLPLACE": "ES SENIA", "AIRPORTCOD": "ORN", "XCOORD": -0.61667, "YCOORD": 35.63333 }, "geometry": { "type": "Point", "coordinates": [ -0.61666992, 35.63333001 ] } }
,
{ "type": "Feature", "properties": { "NAME": "OUARGLA", "COUNTRY": "ALGERIA", "ADDTLPLACE": null, "AIRPORTCOD": "OGX", "XCOORD": 5.4, "YCOORD": 31.91667 }, "geometry": { "type": "Point", "coordinates": [ 5.4, 31.91667003 ] } }
,
{ "type": "Feature", "properties": { "NAME": "SETIF", "COUNTRY": "ALGERIA", "ADDTLPLACE": "AIN ARNAT", "AIRPORTCOD": "QSF", "XCOORD": 5.33333, "YCOORD": 36.18333 }, "geometry": { "type": "Point", "coordinates": [ 5.33333016, 36.18333 ] } }
,
{ "type": "Feature", "properties": { "NAME": "SKIKDA", "COUNTRY": "ALGERIA", "ADDTLPLACE": null, "AIRPORTCOD": null, "XCOORD": 6.95, "YCOORD": 36.93333 }, "geometry": { "type": "Point", "coordinates": [ 6.95000016, 36.93332997 ] } }
,
{ "type": "Feature", "properties": { "NAME": "SKIKDA", "COUNTRY": "ALGERIA", "ADDTLPLACE": null, "AIRPORTCOD": "SKI", "XCOORD": 6.95, "YCOORD": 36.86667 }, "geometry": { "type": "Point", "coordinates": [ 6.95000016, 36.86667003 ] } }
,
{ "type": "Feature", "properties": { "NAME": "TAFAROVI", "COUNTRY": "ALGERIA", "ADDTLPLACE": "ORAN\/TAFAROUI", "AIRPORTCOD": "TAF", "XCOORD": -0.53333, "YCOORD": 35.55 }, "geometry": { "type": "Point", "coordinates": [ -0.53332992, 35.55 ] } }
,
{ "type": "Feature", "properties": { "NAME": "TAMANRASSET", "COUNTRY": "ALGERIA", "ADDTLPLACE": "AGUENNA", "AIRPORTCOD": "TMR", "XCOORD": 5.46667, "YCOORD": 22.81667 }, "geometry": { "type": "Point", "coordinates": [ 5.46666984, 22.81667004 ] } }
,
{ "type": "Feature", "properties": { "NAME": "TEBESSA", "COUNTRY": "ALGERIA", "ADDTLPLACE": null, "AIRPORTCOD": "TEE", "XCOORD": 8.11667, "YCOORD": 35.43333 }, "geometry": { "type": "Point", "coordinates": [ 8.11667016, 35.43333003 ] } }
,
{ "type": "Feature", "properties": { "NAME": "TIARET", "COUNTRY": "ALGERIA", "ADDTLPLACE": "BOU CHEKIF", "AIRPORTCOD": "TID", "XCOORD": 1.46667, "YCOORD": 35.35 }, "geometry": { "type": "Point", "coordinates": [ 1.46666988, 35.35000002 ] } }
,
{ "type": "Feature", "properties": { "NAME": "TIMIMOUN", "COUNTRY": "ALGERIA", "ADDTLPLACE": null, "AIRPORTCOD": "TMX", "XCOORD": 0.28333, "YCOORD": 29.23333 }, "geometry": { "type": "Point", "coordinates": [ 0.28333008, 29.23333002 ] } }
,
{ "type": "Feature", "properties": { "NAME": "TINDOUF", "COUNTRY": "ALGERIA", "ADDTLPLACE": null, "AIRPORTCOD": "TIN", "XCOORD": -8.16667, "YCOORD": 27.71667 }, "geometry": { "type": "Point", "coordinates": [ -8.16666984, 27.71667 ] } }
,
{ "type": "Feature", "properties": { "NAME": "TLEMCEN (TILIMSEN)", "COUNTRY": "ALGERIA", "ADDTLPLACE": "ZENATA", "AIRPORTCOD": "TLM", "XCOORD": -1.45, "YCOORD": 35.01667 }, "geometry": { "type": "Point", "coordinates": [ -1.45000008, 35.01666999 ] } }
,
{ "type": "Feature", "properties": { "NAME": "TOUGGOURT", "COUNTRY": "ALGERIA", "ADDTLPLACE": "SIDI MAHDI", "AIRPORTCOD": "TGR", "XCOORD": 6.06667, "YCOORD": 33.08333 }, "geometry": { "type": "Point", "coordinates": [ 6.06666996, 33.08333004 ] } }
,
{ "type": "Feature", "properties": { "NAME": "ZERZALTINE", "COUNTRY": "ALGERIA", "ADDTLPLACE": "IN AMENAS", "AIRPORTCOD": "IAM", "XCOORD": 9.63333, "YCOORD": 28.05 }, "geometry": { "type": "Point", "coordinates": [ 9.63333, 28.05000003 ] } }
,
{ "type": "Feature", "properties": { "NAME": "OFU ISLAND", "COUNTRY": "AMERICAN SAMOA", "ADDTLPLACE": "OFU AIRPORT", "AIRPORTCOD": "OFU", "XCOORD": -169.7, "YCOORD": -14.16667 }, "geometry": { "type": "Point", "coordinates": [ -169.70000004, -14.16666996 ] } }
,
{ "type": "Feature", "properties": { "NAME": "PAGO PAGO", "COUNTRY": "AMERICAN SAMOA", "ADDTLPLACE": "PAGO PAGO INTL", "AIRPORTCOD": "PPG", "XCOORD": -170.71028, "YCOORD": -14.33083 }, "geometry": { "type": "Point", "coordinates": [ -170.710279919999977, -14.33082996 ] } }
,
{ "type": "Feature", "properties": { "NAME": "TAU ISLAND", "COUNTRY": "AMERICAN SAMOA", "ADDTLPLACE": "TAU SEAPLANE BASE", "AIRPORTCOD": "TAV", "XCOORD": -169.5, "YCOORD": -14.25 }, "geometry": { "type": "Point", "coordinates": [ -169.49999988, -14.24999997 ] } }
,
{ "type": "Feature", "properties": { "NAME": "ANDORRA LA VELLA", "COUNTRY": "ANDORRA", "ADDTLPLACE": null, "AIRPORTCOD": "ALV", "XCOORD": 1.5, "YCOORD": 42.53333 }, "geometry": { "type": "Point", "coordinates": [ 1.50000012, 42.53333004 ] } }
,
{ "type": "Feature", "properties": { "NAME": "AMBRIZ", "COUNTRY": "ANGOLA", "ADDTLPLACE": null, "AIRPORTCOD": "AMR", "XCOORD": 13.11667, "YCOORD": -7.85 }, "geometry": { "type": "Point", "coordinates": [ 13.11666984, -7.84999998 ] } }
,
{ "type": "Feature", "properties": { "NAME": "ANDULO", "COUNTRY": "ANGOLA", "ADDTLPLACE": null, "AIRPORTCOD": "ANL", "XCOORD": 16.75, "YCOORD": -11.5 }, "geometry": { "type": "Point", "coordinates": [ 16.75000008, -11.50000002 ] } }
,
{ "type": "Feature", "properties": { "NAME": "BENGUELA\/MONBACA", "COUNTRY": "ANGOLA", "ADDTLPLACE": null, "AIRPORTCOD": "BUG", "XCOORD": 13.4, "YCOORD": -12.61667 }, "geometry": { "type": "Point", "coordinates": [ 13.39999992, -12.61666998 ] } }
,
{ "type": "Feature", "properties": { "NAME": "BIE\/KUITO\/SILVA PORTO", "COUNTRY": "ANGOLA", "ADDTLPLACE": "BIE\/KUITO\/SILVA", "AIRPORTCOD": "SVP", "XCOORD": 16.95, "YCOORD": -12.4 }, "geometry": { "type": "Point", "coordinates": [ 16.94999988, -12.40000002 ] } }
,
{ "type": "Feature", "properties": { "NAME": "CABINDA", "COUNTRY": "ANGOLA", "ADDTLPLACE": null, "AIRPORTCOD": "CAB", "XCOORD": 12.2, "YCOORD": -5.58333 }, "geometry": { "type": "Point", "coordinates": [ 12.20000004, -5.58333 ] } }
,
{ "type": "Feature", "properties": { "NAME": "CACONDA", "COUNTRY": "ANGOLA", "ADDTLPLACE": null, "AIRPORTCOD": "CCO", "XCOORD": 15.08333, "YCOORD": -13.73333 }, "geometry": { "type": "Point", "coordinates": [ 15.08333004, -13.73333004 ] } }
,
{ "type": "Feature", "properties": { "NAME": "CAMABATELA", "COUNTRY": "ANGOLA", "ADDTLPLACE": null, "AIRPORTCOD": "CBT", "XCOORD": 15.36667, "YCOORD": -8.18333 }, "geometry": { "type": "Point", "coordinates": [ 15.36666984, -8.18333001 ] } }
,
{ "type": "Feature", "properties": { "NAME": "CAMAXILO", "COUNTRY": "ANGOLA", "ADDTLPLACE": null, "AIRPORTCOD": "CXM", "XCOORD": 18.93333, "YCOORD": -8.36667 }, "geometry": { "type": "Point", "coordinates": [ 18.93332988, -8.36667 ] } }
,
{ "type": "Feature", "properties": { "NAME": "CANGAMBA", "COUNTRY": "ANGOLA", "ADDTLPLACE": null, "AIRPORTCOD": "CNZ", "XCOORD": 19.88333, "YCOORD": -13.68333 }, "geometry": { "type": "Point", "coordinates": [ 19.88332992, -13.68333 ] } }
,
{ "type": "Feature", "properties": { "NAME": "CARMONA", "COUNTRY": "ANGOLA", "ADDTLPLACE": null, "AIRPORTCOD": "UGO", "XCOORD": 15.03333, "YCOORD": -7.6 }, "geometry": { "type": "Point", "coordinates": [ 15.03333, -7.59999996 ] } }
,
{ "type": "Feature", "properties": { "NAME": "CAZOMBO", "COUNTRY": "ANGOLA", "ADDTLPLACE": null, "AIRPORTCOD": null, "XCOORD": 22.9, "YCOORD": -11.86667 }, "geometry": { "type": "Point", "coordinates": [ 22.89999996, -11.86667001 ] } }
,
{ "type": "Feature", "properties": { "NAME": "CAZOMBO", "COUNTRY": "ANGOLA", "ADDTLPLACE": null, "AIRPORTCOD": "CAV", "XCOORD": 22.93333, "YCOORD": -11.88333 }, "geometry": { "type": "Point", "coordinates": [ 22.93332984, -11.88333 ] } }
,
{ "type": "Feature", "properties": { "NAME": "CUITO CUANAVALE", "COUNTRY": "ANGOLA", "ADDTLPLACE": null, "AIRPORTCOD": "CTI", "XCOORD": 19.16667, "YCOORD": -15.16667 }, "geometry": { "type": "Point", "coordinates": [ 19.16667, -15.16667004 ] } }
,
{ "type": "Feature", "properties": { "NAME": "DAMBA", "COUNTRY": "ANGOLA", "ADDTLPLACE": null, "AIRPORTCOD": "DBA", "XCOORD": 15.13333, "YCOORD": -6.7 }, "geometry": { "type": "Point", "coordinates": [ 15.13333008, -6.69999996 ] } }
,
{ "type": "Feature", "properties": { "NAME": "FORTE ROCADAS", "COUNTRY": "ANGOLA", "ADDTLPLACE": null, "AIRPORTCOD": "FDS", "XCOORD": 14.96667, "YCOORD": -16.75 }, "geometry": { "type": "Point", "coordinates": [ 14.96666988, -16.74999999 ] } }
,
{ "type": "Feature", "properties": { "NAME": "GAGO COUTINHO", "COUNTRY": "ANGOLA", "ADDTLPLACE": null, "AIRPORTCOD": "GGC", "XCOORD": 21.43333, "YCOORD": -14.11667 }, "geometry": { "type": "Point", "coordinates": [ 21.43333008, -14.11667001 ] } }
,
{ "type": "Feature", "properties": { "NAME": "HUAMBO\/NOVA LISBOA", "COUNTRY": "ANGOLA", "ADDTLPLACE": null, "AIRPORTCOD": null, "XCOORD": 15.75, "YCOORD": -12.8 }, "geometry": { "type": "Point", "coordinates": [ 15.75, -12.79999998 ] } }
,
{ "type": "Feature", "properties": { "NAME": "JAMBA", "COUNTRY": "ANGOLA", "ADDTLPLACE": null, "AIRPORTCOD": "JMB", "XCOORD": 16.08333, "YCOORD": -14.7 }, "geometry": { "type": "Point", "coordinates": [ 16.08333012, -14.69999997 ] } }
,
{ "type": "Feature", "properties": { "NAME": "LOBITO", "COUNTRY": "ANGOLA", "ADDTLPLACE": null, "AIRPORTCOD": "LOB", "XCOORD": 13.53333, "YCOORD": -12.36667 }, "geometry": { "type": "Point", "coordinates": [ 13.53332988, -12.36666996 ] } }
,
{ "type": "Feature", "properties": { "NAME": "LUANDA", "COUNTRY": "ANGOLA", "ADDTLPLACE": "AEROPORTO 4 DE FEVEREIRO (BELAS)", "AIRPORTCOD": "LAD", "XCOORD": 13.23333, "YCOORD": -8.85 }, "geometry": { "type": "Point", "coordinates": [ 13.23333, -8.84999997 ] } }
,
{ "type": "Feature", "properties": { "NAME": "LUBANGO (SA DA BANDEIRA)", "COUNTRY": "ANGOLA", "ADDTLPLACE": "LUBANGO\/BANDEIRA", "AIRPORTCOD": "SDD", "XCOORD": 13.58333, "YCOORD": -14.93333 }, "geometry": { "type": "Point", "coordinates": [ 13.58332992, -14.93333001 ] } }
,
{ "type": "Feature", "properties": { "NAME": "LUENA\/LUSO", "COUNTRY": "ANGOLA", "ADDTLPLACE": null, "AIRPORTCOD": "LUO", "XCOORD": 19.86667, "YCOORD": -11.75 }, "geometry": { "type": "Point", "coordinates": [ 19.86666984, -11.75000004 ] } }
,
{ "type": "Feature", "properties": { "NAME": "MALANGE (MALANJE)", "COUNTRY": "ANGOLA", "ADDTLPLACE": "MALANGE", "AIRPORTCOD": "MEG", "XCOORD": 16.33333, "YCOORD": -9.53333 }, "geometry": { "type": "Point", "coordinates": [ 16.33332996, -9.53333001 ] } }
,
{ "type": "Feature", "properties": { "NAME": "MAQUELA DO ZOMBO", "COUNTRY": "ANGOLA", "ADDTLPLACE": null, "AIRPORTCOD": "MQZ", "XCOORD": 15.11667, "YCOORD": -6.03333 }, "geometry": { "type": "Point", "coordinates": [ 15.11667, -6.03333 ] } }
,
{ "type": "Feature", "properties": { "NAME": "NAMIBE", "COUNTRY": "ANGOLA", "ADDTLPLACE": "MOCAMEDES NEW AIRPORT", "AIRPORTCOD": "MSZ", "XCOORD": 12.16667, "YCOORD": -15.21667 }, "geometry": { "type": "Point", "coordinates": [ 12.16667016, -15.21666999 ] } }
,
{ "type": "Feature", "properties": { "NAME": "NEGAGE", "COUNTRY": "ANGOLA", "ADDTLPLACE": null, "AIRPORTCOD": "GXG", "XCOORD": 15.28333, "YCOORD": -7.76667 }, "geometry": { "type": "Point", "coordinates": [ 15.28332984, -7.76666997 ] } }
,
{ "type": "Feature", "properties": { "NAME": "NOVO REDONDO", "COUNTRY": "ANGOLA", "ADDTLPLACE": null, "AIRPORTCOD": "NDD", "XCOORD": 13.86667, "YCOORD": -11.16667 }, "geometry": { "type": "Point", "coordinates": [ 13.86667008, -11.16666999 ] } }
,
{ "type": "Feature", "properties": { "NAME": "N'ZETO\/AMBRIZETE", "COUNTRY": "ANGOLA", "ADDTLPLACE": null, "AIRPORTCOD": "ARZ", "XCOORD": 12.9, "YCOORD": -7.23333 }, "geometry": { "type": "Point", "coordinates": [ 12.89999988, -7.23332997 ] } }
,
{ "type": "Feature", "properties": { "NAME": "PORTO AMBOIM", "COUNTRY": "ANGOLA", "ADDTLPLACE": null, "AIRPORTCOD": "PBN", "XCOORD": 13.75, "YCOORD": -10.7 }, "geometry": { "type": "Point", "coordinates": [ 13.74999984, -10.70000001 ] } }
,
{ "type": "Feature", "properties": { "NAME": "PORTUGALIA", "COUNTRY": "ANGOLA", "ADDTLPLACE": "DUNDO", "AIRPORTCOD": "PGI", "XCOORD": 20.8, "YCOORD": -7.36667 }, "geometry": { "type": "Point", "coordinates": [ 20.80000008, -7.36667001 ] } }
,
{ "type": "Feature", "properties": { "NAME": "SANTO ANTONIO DO ZAIRE", "COUNTRY": "ANGOLA", "ADDTLPLACE": null, "AIRPORTCOD": "SZA", "XCOORD": 12.36667, "YCOORD": -6.11667 }, "geometry": { "type": "Point", "coordinates": [ 12.36666996, -6.11667 ] } }
,
{ "type": "Feature", "properties": { "NAME": "SANZA POMBO", "COUNTRY": "ANGOLA", "ADDTLPLACE": null, "AIRPORTCOD": "SPZ", "XCOORD": 15.93333, "YCOORD": -7.25 }, "geometry": { "type": "Point", "coordinates": [ 15.93333, -7.25000004 ] } }
,
{ "type": "Feature", "properties": { "NAME": "SAO SALVADOR", "COUNTRY": "ANGOLA", "ADDTLPLACE": null, "AIRPORTCOD": "SSY", "XCOORD": 14.25, "YCOORD": -6.26667 }, "geometry": { "type": "Point", "coordinates": [ 14.24999988, -6.26667003 ] } }
,
{ "type": "Feature", "properties": { "NAME": "SAURIMO\/HENRIQUE DE CARV", "COUNTRY": "ANGOLA", "ADDTLPLACE": "SAURIMO\/HENRIQUE DE", "AIRPORTCOD": "VHC", "XCOORD": 20.43333, "YCOORD": -9.7 }, "geometry": { "type": "Point", "coordinates": [ 20.43333, -9.70000002 ] } }
,
{ "type": "Feature", "properties": { "NAME": "SERPA PINTO\/MENONGUE", "COUNTRY": "ANGOLA", "ADDTLPLACE": "MENONGUE EAST\/SERPA", "AIRPORTCOD": "SPP", "XCOORD": 17.71667, "YCOORD": -14.65 }, "geometry": { "type": "Point", "coordinates": [ 17.71666992, -14.65000002 ] } }
,
{ "type": "Feature", "properties": { "NAME": "TEIXEIRA DE SOUSA", "COUNTRY": "ANGOLA", "ADDTLPLACE": null, "AIRPORTCOD": "TXA", "XCOORD": 22.23333, "YCOORD": -10.71667 }, "geometry": { "type": "Point", "coordinates": [ 22.23333, -10.71666999 ] } }
,
{ "type": "Feature", "properties": { "NAME": "TOTO", "COUNTRY": "ANGOLA", "ADDTLPLACE": null, "AIRPORTCOD": "TTO", "XCOORD": 14.26667, "YCOORD": -7.16667 }, "geometry": { "type": "Point", "coordinates": [ 14.26667004, -7.16667003 ] } }
,
{ "type": "Feature", "properties": { "NAME": "WACO KUNGO\/CELA", "COUNTRY": "ANGOLA", "ADDTLPLACE": "WAKU KUNGU\/CELA", "AIRPORTCOD": "CEO", "XCOORD": 15.08333, "YCOORD": -11.41667 }, "geometry": { "type": "Point", "coordinates": [ 15.08333004, -11.41667001 ] } }
,
{ "type": "Feature", "properties": { "NAME": "XANGONGO", "COUNTRY": "ANGOLA", "ADDTLPLACE": null, "AIRPORTCOD": "XGN", "XCOORD": 15.01667, "YCOORD": -16.71667 }, "geometry": { "type": "Point", "coordinates": [ 15.01666992, -16.71667002 ] } }
,
{ "type": "Feature", "properties": { "NAME": "ANGUILLA", "COUNTRY": "ANGUILLA", "ADDTLPLACE": "THE VALLEY\/WALLBLAKE", "AIRPORTCOD": "AXA", "XCOORD": -63.06667, "YCOORD": 18.2 }, "geometry": { "type": "Point", "coordinates": [ -63.06666984, 18.19999998 ] } }
,
{ "type": "Feature", "properties": { "NAME": "ANTIGUA (SAINT JOHN'S)", "COUNTRY": "ANTIGUA", "ADDTLPLACE": "V.C. BIRD INTERNATIONAL", "AIRPORTCOD": "ANU", "XCOORD": -61.78333, "YCOORD": 17.11667 }, "geometry": { "type": "Point", "coordinates": [ -61.78332996, 17.11666998 ] } }
,
{ "type": "Feature", "properties": { "NAME": "ALTO RIO SENGUERR", "COUNTRY": "ARGENTINA", "ADDTLPLACE": null, "AIRPORTCOD": "ARR", "XCOORD": -70.8, "YCOORD": -45.01667 }, "geometry": { "type": "Point", "coordinates": [ -70.80000012, -45.01666998 ] } }
,
{ "type": "Feature", "properties": { "NAME": "ALTO RIO SENGUERR", "COUNTRY": "ARGENTINA", "ADDTLPLACE": null, "AIRPORTCOD": null, "XCOORD": -70.81667, "YCOORD": -45.01667 }, "geometry": { "type": "Point", "coordinates": [ -70.81666992, -45.01666998 ] } }
,
{ "type": "Feature", "properties": { "NAME": "AZUL AIRPORT", "COUNTRY": "ARGENTINA", "ADDTLPLACE": null, "AIRPORTCOD": null, "XCOORD": -59.83333, "YCOORD": -36.75 }, "geometry": { "type": "Point", "coordinates": [ -59.83332984, -36.74999997 ] } }
,
{ "type": "Feature", "properties": { "NAME": "BAHIA BLANCA", "COUNTRY": "ARGENTINA", "ADDTLPLACE": "COMANDANTE ESPORA", "AIRPORTCOD": "BHI", "XCOORD": -62.15, "YCOORD": -38.71667 }, "geometry": { "type": "Point", "coordinates": [ -62.15000004, -38.71666998 ] } }
,
{ "type": "Feature", "properties": { "NAME": "BOLIVAR", "COUNTRY": "ARGENTINA", "ADDTLPLACE": null, "AIRPORTCOD": null, "XCOORD": -61.1, "YCOORD": -36.25 }, "geometry": { "type": "Point", "coordinates": [ -61.09999992, -36.25000002 ] } }
,
{ "type": "Feature", "properties": { "NAME": "BUENOS AIRES", "COUNTRY": "ARGENTINA", "ADDTLPLACE": "AEROPARQUE JORGE NEWBERY", "AIRPORTCOD": "AEP", "XCOORD": -58.41667, "YCOORD": -34.56667 }, "geometry": { "type": "Point", "coordinates": [ -58.41667008, -34.56666999 ] } }
,
{ "type": "Feature", "properties": { "NAME": "BUENOS AIRES", "COUNTRY": "ARGENTINA", "ADDTLPLACE": "METROPOLITAN AREA", "AIRPORTCOD": "BUE", "XCOORD": -58.65, "YCOORD": -34.68333 }, "geometry": { "type": "Point", "coordinates": [ -58.65000012, -34.68332997 ] } }
,
{ "type": "Feature", "properties": { "NAME": "BUENOS AIRES", "COUNTRY": "ARGENTINA", "ADDTLPLACE": "AEROPUERTO INTERNACIONAL EZEIZA\/MINISTRO PISTARINI", "AIRPORTCOD": "EZE", "XCOORD": -58.53333, "YCOORD": -34.83333 }, "geometry": { "type": "Point", "coordinates": [ -58.53332988, -34.83333 ] } }
,
{ "type": "Feature", "properties": { "NAME": "CALETA OLIVIA", "COUNTRY": "ARGENTINA", "ADDTLPLACE": null, "AIRPORTCOD": "CVI", "XCOORD": -67.53333, "YCOORD": -46.43333 }, "geometry": { "type": "Point", "coordinates": [ -67.53332988, -46.43333001 ] } }
,
{ "type": "Feature", "properties": { "NAME": "CARMEN DE PATAGONES", "COUNTRY": "ARGENTINA", "ADDTLPLACE": null, "AIRPORTCOD": "CPG", "XCOORD": -62.98333, "YCOORD": -40.8 }, "geometry": { "type": "Point", "coordinates": [ -62.98332984, -40.79999997 ] } }
,
{ "type": "Feature", "properties": { "NAME": "CATAMARCA", "COUNTRY": "ARGENTINA", "ADDTLPLACE": "CATAMARCA AIRPORT", "AIRPORTCOD": "CTC", "XCOORD": -65.78333, "YCOORD": -28.61667 }, "geometry": { "type": "Point", "coordinates": [ -65.78332992, -28.61667 ] } }
,
{ "type": "Feature", "properties": { "NAME": "CERES", "COUNTRY": "ARGENTINA", "ADDTLPLACE": null, "AIRPORTCOD": "CRR", "XCOORD": -61.91667, "YCOORD": -29.86667 }, "geometry": { "type": "Point", "coordinates": [ -61.91667, -29.86667001 ] } }
,
{ "type": "Feature", "properties": { "NAME": "CHARATA", "COUNTRY": "ARGENTINA", "ADDTLPLACE": null, "AIRPORTCOD": "CNT", "XCOORD": -61.21667, "YCOORD": -27.21667 }, "geometry": { "type": "Point", "coordinates": [ -61.21667016, -27.21666996 ] } }
,
{ "type": "Feature", "properties": { "NAME": "CHEPES", "COUNTRY": "ARGENTINA", "ADDTLPLACE": null, "AIRPORTCOD": null, "XCOORD": -66.6, "YCOORD": -31.33333 }, "geometry": { "type": "Point", "coordinates": [ -66.6, -31.33332999 ] } }
,
{ "type": "Feature", "properties": { "NAME": "CHILECITO", "COUNTRY": "ARGENTINA", "ADDTLPLACE": null, "AIRPORTCOD": null, "XCOORD": -67.43333, "YCOORD": -29.23333 }, "geometry": { "type": "Point", "coordinates": [ -67.43333016, -29.23333002 ] } }
,
{ "type": "Feature", "properties": { "NAME": "CLORINDA", "COUNTRY": "ARGENTINA", "ADDTLPLACE": null, "AIRPORTCOD": "CLX", "XCOORD": -57.71667, "YCOORD": -25.28333 }, "geometry": { "type": "Point", "coordinates": [ -57.71666988, -25.28333001 ] } }
,
{ "type": "Feature", "properties": { "NAME": "COLONIA SARMIENTO", "COUNTRY": "ARGENTINA", "ADDTLPLACE": null, "AIRPORTCOD": "OLN", "XCOORD": -69.0, "YCOORD": -45.58333 }, "geometry": { "type": "Point", "coordinates": [ -69.00000012, -45.58332996 ] } }
,
{ "type": "Feature", "properties": { "NAME": "COMODORO RIVADAVIA", "COUNTRY": "ARGENTINA", "ADDTLPLACE": "GENERAL E. MOSCONI", "AIRPORTCOD": "CRD", "XCOORD": -67.46667, "YCOORD": -45.78333 }, "geometry": { "type": "Point", "coordinates": [ -67.466670119999989, -45.78333003 ] } }
,
{ "type": "Feature", "properties": { "NAME": "CONCORDIA", "COUNTRY": "ARGENTINA", "ADDTLPLACE": "COMODORO PIERRESTE", "AIRPORTCOD": "COC", "XCOORD": -58.0, "YCOORD": -31.3 }, "geometry": { "type": "Point", "coordinates": [ -57.99999996, -31.30000002 ] } }
,
{ "type": "Feature", "properties": { "NAME": "CORDOBA", "COUNTRY": "ARGENTINA", "ADDTLPLACE": "PAJAS BLANCAS", "AIRPORTCOD": "COR", "XCOORD": -64.2, "YCOORD": -31.31667 }, "geometry": { "type": "Point", "coordinates": [ -64.19999988, -31.31667 ] } }
,
{ "type": "Feature", "properties": { "NAME": "CORRIENTES", "COUNTRY": "ARGENTINA", "ADDTLPLACE": "CORRIENTES AIRPORT", "AIRPORTCOD": "CNQ", "XCOORD": -58.76667, "YCOORD": -27.45 }, "geometry": { "type": "Point", "coordinates": [ -58.76667, -27.45 ] } }
,
{ "type": "Feature", "properties": { "NAME": "CURUZU CUATIA", "COUNTRY": "ARGENTINA", "ADDTLPLACE": "CURUZU CUATIA ARPT", "AIRPORTCOD": "UZU", "XCOORD": -58.08333, "YCOORD": -29.76667 }, "geometry": { "type": "Point", "coordinates": [ -58.08332988, -29.76667002 ] } }
,
{ "type": "Feature", "properties": { "NAME": "CUTRAL-CO", "COUNTRY": "ARGENTINA", "ADDTLPLACE": null, "AIRPORTCOD": "CUT", "XCOORD": -69.23333, "YCOORD": -38.93333 }, "geometry": { "type": "Point", "coordinates": [ -69.23333016, -38.93333004 ] } }
,
{ "type": "Feature", "properties": { "NAME": "DOLORES AIRPORT", "COUNTRY": "ARGENTINA", "ADDTLPLACE": null, "AIRPORTCOD": null, "XCOORD": -57.73333, "YCOORD": -36.35 }, "geometry": { "type": "Point", "coordinates": [ -57.73332996, -36.35000001 ] } }
,
{ "type": "Feature", "properties": { "NAME": "DON TORCUATO ARPT", "COUNTRY": "ARGENTINA", "ADDTLPLACE": null, "AIRPORTCOD": null, "XCOORD": -58.61667, "YCOORD": -34.48333 }, "geometry": { "type": "Point", "coordinates": [ -58.61666988, -34.48332999 ] } }
,
{ "type": "Feature", "properties": { "NAME": "EL BOLSON", "COUNTRY": "ARGENTINA", "ADDTLPLACE": null, "AIRPORTCOD": "EHL", "XCOORD": -71.53333, "YCOORD": -41.96667 }, "geometry": { "type": "Point", "coordinates": [ -71.53332984, -41.96666997 ] } }
,
{ "type": "Feature", "properties": { "NAME": "EL DORADO", "COUNTRY": "ARGENTINA", "ADDTLPLACE": null, "AIRPORTCOD": null, "XCOORD": -54.56667, "YCOORD": -26.4 }, "geometry": { "type": "Point", "coordinates": [ -54.56666988, -26.39999997 ] } }
,
{ "type": "Feature", "properties": { "NAME": "EL MAITEN", "COUNTRY": "ARGENTINA", "ADDTLPLACE": null, "AIRPORTCOD": "EMX", "XCOORD": -71.16667, "YCOORD": -42.03333 }, "geometry": { "type": "Point", "coordinates": [ -71.16666984, -42.03333 ] } }
,
{ "type": "Feature", "properties": { "NAME": "EL PALOMAR AIRPORT", "COUNTRY": "ARGENTINA", "ADDTLPLACE": null, "AIRPORTCOD": null, "XCOORD": -58.6, "YCOORD": -34.6 }, "geometry": { "type": "Point", "coordinates": [ -58.60000008, -34.59999996 ] } }
,
{ "type": "Feature", "properties": { "NAME": "ELDORADO", "COUNTRY": "ARGENTINA", "ADDTLPLACE": null, "AIRPORTCOD": "ELO", "XCOORD": -54.66667, "YCOORD": -26.41667 }, "geometry": { "type": "Point", "coordinates": [ -54.66666996, -26.41667004 ] } }
,
{ "type": "Feature", "properties": { "NAME": "ESQUEL", "COUNTRY": "ARGENTINA", "ADDTLPLACE": "ESQUEL AIRPORT", "AIRPORTCOD": "EQS", "XCOORD": -71.15, "YCOORD": -42.91667 }, "geometry": { "type": "Point", "coordinates": [ -71.15000004, -42.91667001 ] } }
,
{ "type": "Feature", "properties": { "NAME": "FORMOSA", "COUNTRY": "ARGENTINA", "ADDTLPLACE": "FORMOSA AIRPORT", "AIRPORTCOD": "FMA", "XCOORD": -58.23333, "YCOORD": -26.2 }, "geometry": { "type": "Point", "coordinates": [ -58.23333, -26.19999999 ] } }
,
{ "type": "Feature", "properties": { "NAME": "GENERAL PICO", "COUNTRY": "ARGENTINA", "ADDTLPLACE": "GENERAL PICO ARPT", "AIRPORTCOD": "GPO", "XCOORD": -63.75, "YCOORD": -35.7 }, "geometry": { "type": "Point", "coordinates": [ -63.74999988, -35.70000003 ] } }
,
{ "type": "Feature", "properties": { "NAME": "GENERAL ROCA", "COUNTRY": "ARGENTINA", "ADDTLPLACE": null, "AIRPORTCOD": "GNR", "XCOORD": -67.58333, "YCOORD": -39.03333 }, "geometry": { "type": "Point", "coordinates": [ -67.58332992, -39.03333003 ] } }
,
{ "type": "Feature", "properties": { "NAME": "GENERAL VILLEGAS", "COUNTRY": "ARGENTINA", "ADDTLPLACE": null, "AIRPORTCOD": "VGS", "XCOORD": -63.01667, "YCOORD": -35.03333 }, "geometry": { "type": "Point", "coordinates": [ -63.01667016, -35.03332998 ] } }
,
{ "type": "Feature", "properties": { "NAME": "GOBERNADOR DOS GREGORES", "COUNTRY": "ARGENTINA", "ADDTLPLACE": "GOBERNADOR GREGORES", "AIRPORTCOD": "GGS", "XCOORD": -70.2, "YCOORD": -48.76667 }, "geometry": { "type": "Point", "coordinates": [ -70.2, -48.76667001 ] } }
,
{ "type": "Feature", "properties": { "NAME": "GOYA", "COUNTRY": "ARGENTINA", "ADDTLPLACE": null, "AIRPORTCOD": "OYA", "XCOORD": -59.25, "YCOORD": -29.1 }, "geometry": { "type": "Point", "coordinates": [ -59.24999988, -29.09999997 ] } }
,
{ "type": "Feature", "properties": { "NAME": "GUALEGUAYCHU", "COUNTRY": "ARGENTINA", "ADDTLPLACE": "GUALEGUAYCHU ARPT", "AIRPORTCOD": "GHU", "XCOORD": -58.61667, "YCOORD": -33.0 }, "geometry": { "type": "Point", "coordinates": [ -58.61666988, -33.0 ] } }
,
{ "type": "Feature", "properties": { "NAME": "IGUAZU", "COUNTRY": "ARGENTINA", "ADDTLPLACE": "CATARATAS DEL IGUAZU", "AIRPORTCOD": "IGR", "XCOORD": -54.46667, "YCOORD": -25.73333 }, "geometry": { "type": "Point", "coordinates": [ -54.46667016, -25.73333001 ] } }
,
{ "type": "Feature", "properties": { "NAME": "INGENIERO JACOBACCI", "COUNTRY": "ARGENTINA", "ADDTLPLACE": null, "AIRPORTCOD": "IGB", "XCOORD": -69.58333, "YCOORD": -41.3 }, "geometry": { "type": "Point", "coordinates": [ -69.58333008, -41.30000001 ] } }
,
{ "type": "Feature", "properties": { "NAME": "JACHAL", "COUNTRY": "ARGENTINA", "ADDTLPLACE": null, "AIRPORTCOD": null, "XCOORD": -68.75, "YCOORD": -30.25 }, "geometry": { "type": "Point", "coordinates": [ -68.74999992, -30.24999999 ] } }
,
{ "type": "Feature", "properties": { "NAME": "JOSE DE SAN MARTIN", "COUNTRY": "ARGENTINA", "ADDTLPLACE": null, "AIRPORTCOD": "JSM", "XCOORD": -70.46667, "YCOORD": -44.03333 }, "geometry": { "type": "Point", "coordinates": [ -70.46667, -44.03332998 ] } }
,
{ "type": "Feature", "properties": { "NAME": "JUJUY", "COUNTRY": "ARGENTINA", "ADDTLPLACE": "JUJUY AIRPORT", "AIRPORTCOD": "JUJ", "XCOORD": -65.08333, "YCOORD": -24.4 }, "geometry": { "type": "Point", "coordinates": [ -65.08333008, -24.39999999 ] } }
,
{ "type": "Feature", "properties": { "NAME": "JUNIN", "COUNTRY": "ARGENTINA", "ADDTLPLACE": "JUNIN AIRPORT", "AIRPORTCOD": "JNI", "XCOORD": -60.95, "YCOORD": -34.55 }, "geometry": { "type": "Point", "coordinates": [ -60.95000016, -34.55000001 ] } }
,
{ "type": "Feature", "properties": { "NAME": "LA CUMBRE", "COUNTRY": "ARGENTINA", "ADDTLPLACE": null, "AIRPORTCOD": "LCM", "XCOORD": -64.53333, "YCOORD": -31.0 }, "geometry": { "type": "Point", "coordinates": [ -64.53333, -30.99999996 ] } }
,
{ "type": "Feature", "properties": { "NAME": "LA PLATA", "COUNTRY": "ARGENTINA", "ADDTLPLACE": "AERODROMO TOLOSA", "AIRPORTCOD": "LPG", "XCOORD": -57.9, "YCOORD": -34.96667 }, "geometry": { "type": "Point", "coordinates": [ -57.89999988, -34.96667004 ] } }
,
{ "type": "Feature", "properties": { "NAME": "LA QUIACA OBSERVAT", "COUNTRY": "ARGENTINA", "ADDTLPLACE": null, "AIRPORTCOD": null, "XCOORD": -65.6, "YCOORD": -22.1 }, "geometry": { "type": "Point", "coordinates": [ -65.59999992, -22.10000004 ] } }
,
{ "type": "Feature", "properties": { "NAME": "LA RIOJA", "COUNTRY": "ARGENTINA", "ADDTLPLACE": "CAPITAN VICENTE ALMANDO", "AIRPORTCOD": "IRJ", "XCOORD": -66.81667, "YCOORD": -29.38333 }, "geometry": { "type": "Point", "coordinates": [ -66.81666996, -29.38332996 ] } }
,
{ "type": "Feature", "properties": { "NAME": "LABOULAYE", "COUNTRY": "ARGENTINA", "ADDTLPLACE": null, "AIRPORTCOD": null, "XCOORD": -63.36667, "YCOORD": -34.13333 }, "geometry": { "type": "Point", "coordinates": [ -63.36667008, -34.13332998 ] } }
,
{ "type": "Feature", "properties": { "NAME": "LAGO ARGENTINO", "COUNTRY": "ARGENTINA", "ADDTLPLACE": "LAGO ARGENTINO ARPT", "AIRPORTCOD": "ING", "XCOORD": -72.25, "YCOORD": -50.33333 }, "geometry": { "type": "Point", "coordinates": [ -72.24999984, -50.33332998 ] } }
,
{ "type": "Feature", "properties": { "NAME": "LAS HERAS", "COUNTRY": "ARGENTINA", "ADDTLPLACE": null, "AIRPORTCOD": "LHS", "XCOORD": -68.81667, "YCOORD": -32.85 }, "geometry": { "type": "Point", "coordinates": [ -68.81667012, -32.85 ] } }
,
{ "type": "Feature", "properties": { "NAME": "LAS LOMITAS", "COUNTRY": "ARGENTINA", "ADDTLPLACE": null, "AIRPORTCOD": "LLS", "XCOORD": -60.58333, "YCOORD": -24.7 }, "geometry": { "type": "Point", "coordinates": [ -60.58333008, -24.69999996 ] } }
,
{ "type": "Feature", "properties": { "NAME": "LOS MENUCOS", "COUNTRY": "ARGENTINA", "ADDTLPLACE": null, "AIRPORTCOD": "LMD", "XCOORD": -68.13333, "YCOORD": -40.83333 }, "geometry": { "type": "Point", "coordinates": [ -68.13333, -40.83333003 ] } }
,
{ "type": "Feature", "properties": { "NAME": "MALARGUE", "COUNTRY": "ARGENTINA", "ADDTLPLACE": "MALARGUE AIRPORT", "AIRPORTCOD": "LGS", "XCOORD": -69.58333, "YCOORD": -35.5 }, "geometry": { "type": "Point", "coordinates": [ -69.58333008, -35.49999996 ] } }
,
{ "type": "Feature", "properties": { "NAME": "MAQUINCHAO", "COUNTRY": "ARGENTINA", "ADDTLPLACE": null, "AIRPORTCOD": "MQD", "XCOORD": -68.73333, "YCOORD": -41.25 }, "geometry": { "type": "Point", "coordinates": [ -68.73333012, -41.24999997 ] } }
,
{ "type": "Feature", "properties": { "NAME": "MAR DEL PLATA", "COUNTRY": "ARGENTINA", "ADDTLPLACE": "MAR DEL PLATA ARPT", "AIRPORTCOD": "MDQ", "XCOORD": -57.58333, "YCOORD": -37.93333 }, "geometry": { "type": "Point", "coordinates": [ -57.58332984, -37.93332996 ] } }
,
{ "type": "Feature", "properties": { "NAME": "MARCOS JUAREZ ARPT", "COUNTRY": "ARGENTINA", "ADDTLPLACE": null, "AIRPORTCOD": null, "XCOORD": -62.15, "YCOORD": -32.7 }, "geometry": { "type": "Point", "coordinates": [ -62.15000004, -32.69999997 ] } }
,
{ "type": "Feature", "properties": { "NAME": "MARIANO MORENO", "COUNTRY": "ARGENTINA", "ADDTLPLACE": null, "AIRPORTCOD": null, "XCOORD": -58.78333, "YCOORD": -34.56667 }, "geometry": { "type": "Point", "coordinates": [ -58.78333008, -34.56666999 ] } }
,
{ "type": "Feature", "properties": { "NAME": "MENDOZA", "COUNTRY": "ARGENTINA", "ADDTLPLACE": "EL PLUMERILLO", "AIRPORTCOD": "MDZ", "XCOORD": -68.8, "YCOORD": -32.83333 }, "geometry": { "type": "Point", "coordinates": [ -68.79999996, -32.83333002 ] } }
,
{ "type": "Feature", "properties": { "NAME": "MENDOZA\/EL PLUMERIL", "COUNTRY": "ARGENTINA", "ADDTLPLACE": null, "AIRPORTCOD": null, "XCOORD": -68.78333, "YCOORD": -32.83333 }, "geometry": { "type": "Point", "coordinates": [ -68.78333016, -32.83333002 ] } }
,
{ "type": "Feature", "properties": { "NAME": "MERCEDES", "COUNTRY": "ARGENTINA", "ADDTLPLACE": null, "AIRPORTCOD": "MDX", "XCOORD": -58.1, "YCOORD": -29.21667 }, "geometry": { "type": "Point", "coordinates": [ -58.10000004, -29.21667003 ] } }
,
{ "type": "Feature", "properties": { "NAME": "MONTE CASEROS", "COUNTRY": "ARGENTINA", "ADDTLPLACE": "MONTE CASEROS ARPT", "AIRPORTCOD": "MCS", "XCOORD": -57.63333, "YCOORD": -30.26667 }, "geometry": { "type": "Point", "coordinates": [ -57.63332988, -30.26666997 ] } }
,
{ "type": "Feature", "properties": { "NAME": "MONTE QUEMADO", "COUNTRY": "ARGENTINA", "ADDTLPLACE": null, "AIRPORTCOD": null, "XCOORD": -62.86667, "YCOORD": -25.75 }, "geometry": { "type": "Point", "coordinates": [ -62.86667004, -25.74999999 ] } }
,
{ "type": "Feature", "properties": { "NAME": "NECOCHEA", "COUNTRY": "ARGENTINA", "ADDTLPLACE": "NECOCHEA AIRPORT", "AIRPORTCOD": "NEC", "XCOORD": -58.8, "YCOORD": -38.48333 }, "geometry": { "type": "Point", "coordinates": [ -58.79999988, -38.48333004 ] } }
,
{ "type": "Feature", "properties": { "NAME": "NEUQUEN", "COUNTRY": "ARGENTINA", "ADDTLPLACE": "NEUQUEN AIRPORT", "AIRPORTCOD": "NQN", "XCOORD": -68.15, "YCOORD": -38.95 }, "geometry": { "type": "Point", "coordinates": [ -68.15000016, -38.95000002 ] } }
,
{ "type": "Feature", "properties": { "NAME": "OLAVARRIA", "COUNTRY": "ARGENTINA", "ADDTLPLACE": null, "AIRPORTCOD": "OLV", "XCOORD": -60.26667, "YCOORD": -36.96667 }, "geometry": { "type": "Point", "coordinates": [ -60.26667012, -36.96667002 ] } }
,
{ "type": "Feature", "properties": { "NAME": "ORAN", "COUNTRY": "ARGENTINA", "ADDTLPLACE": "ORAN AIRPORT", "AIRPORTCOD": "ORA", "XCOORD": -64.31667, "YCOORD": -23.15 }, "geometry": { "type": "Point", "coordinates": [ -64.31667012, -23.14999998 ] } }
,
{ "type": "Feature", "properties": { "NAME": "PARANA", "COUNTRY": "ARGENTINA", "ADDTLPLACE": "GENERAL URQUIZA", "AIRPORTCOD": "PRA", "XCOORD": -60.48333, "YCOORD": -31.78333 }, "geometry": { "type": "Point", "coordinates": [ -60.48333, -31.78332999 ] } }
,
{ "type": "Feature", "properties": { "NAME": "PASO DE INDIOS", "COUNTRY": "ARGENTINA", "ADDTLPLACE": null, "AIRPORTCOD": null, "XCOORD": -68.88333, "YCOORD": -43.81667 }, "geometry": { "type": "Point", "coordinates": [ -68.88332988, -43.81667001 ] } }
,
{ "type": "Feature", "properties": { "NAME": "PASO DE LOS LIBRES", "COUNTRY": "ARGENTINA", "ADDTLPLACE": null, "AIRPORTCOD": "AOL", "XCOORD": -57.15, "YCOORD": -29.68333 }, "geometry": { "type": "Point", "coordinates": [ -57.15, -29.68333002 ] } }
,
{ "type": "Feature", "properties": { "NAME": "PEHUAJO", "COUNTRY": "ARGENTINA", "ADDTLPLACE": "COMODORO ZANNI", "AIRPORTCOD": "PEH", "XCOORD": -61.9, "YCOORD": -35.86667 }, "geometry": { "type": "Point", "coordinates": [ -61.89999984, -35.86667004 ] } }
,
{ "type": "Feature", "properties": { "NAME": "PERITO MORENO", "COUNTRY": "ARGENTINA", "ADDTLPLACE": "PERITO MORENO ARPT", "AIRPORTCOD": "PMQ", "XCOORD": -70.98333, "YCOORD": -46.53333 }, "geometry": { "type": "Point", "coordinates": [ -70.98333012, -46.53333 ] } }
,
{ "type": "Feature", "properties": { "NAME": "PIGUE AIRPORT", "COUNTRY": "ARGENTINA", "ADDTLPLACE": null, "AIRPORTCOD": null, "XCOORD": -62.38333, "YCOORD": -37.6 }, "geometry": { "type": "Point", "coordinates": [ -62.38333008, -37.60000002 ] } }
,
{ "type": "Feature", "properties": { "NAME": "PILAR OBSERVATORIO", "COUNTRY": "ARGENTINA", "ADDTLPLACE": null, "AIRPORTCOD": null, "XCOORD": -63.88333, "YCOORD": -31.66667 }, "geometry": { "type": "Point", "coordinates": [ -63.88332984, -31.66667001 ] } }
,
{ "type": "Feature", "properties": { "NAME": "POSADAS", "COUNTRY": "ARGENTINA", "ADDTLPLACE": "POSADAS AIRPORT", "AIRPORTCOD": "PSS", "XCOORD": -55.96667, "YCOORD": -27.38333 }, "geometry": { "type": "Point", "coordinates": [ -55.96666992, -27.38332998 ] } }
,
{ "type": "Feature", "properties": { "NAME": "PRESIDENCIA ROQUE SAENZ PENA", "COUNTRY": "ARGENTINA", "ADDTLPLACE": "PRESIDENT R S PENA", "AIRPORTCOD": "PRQ", "XCOORD": -60.45, "YCOORD": -26.81667 }, "geometry": { "type": "Point", "coordinates": [ -60.45000012, -26.81667 ] } }
,
{ "type": "Feature", "properties": { "NAME": "PUERTO DESEADO", "COUNTRY": "ARGENTINA", "ADDTLPLACE": "PUERTO DESEADO ARPT", "AIRPORTCOD": "PUD", "XCOORD": -65.93333, "YCOORD": -47.71667 }, "geometry": { "type": "Point", "coordinates": [ -65.93333004, -47.71666998 ] } }
,
{ "type": "Feature", "properties": { "NAME": "PUERTO MADRYN", "COUNTRY": "ARGENTINA", "ADDTLPLACE": "EL TEHUELCHE", "AIRPORTCOD": "PMY", "XCOORD": -65.05, "YCOORD": -42.76667 }, "geometry": { "type": "Point", "coordinates": [ -65.04999984, -42.76666998 ] } }
,
{ "type": "Feature", "properties": { "NAME": "RECONQUISTA", "COUNTRY": "ARGENTINA", "ADDTLPLACE": null, "AIRPORTCOD": "RCQ", "XCOORD": -59.7, "YCOORD": -29.18333 }, "geometry": { "type": "Point", "coordinates": [ -59.69999988, -29.18332998 ] } }
,
{ "type": "Feature", "properties": { "NAME": "RESISTENCIA", "COUNTRY": "ARGENTINA", "ADDTLPLACE": "RESISTENCIA AIRPORT", "AIRPORTCOD": "RES", "XCOORD": -59.05, "YCOORD": -27.45 }, "geometry": { "type": "Point", "coordinates": [ -59.05000008, -27.45 ] } }
,
{ "type": "Feature", "properties": { "NAME": "RIO COLORADO", "COUNTRY": "ARGENTINA", "ADDTLPLACE": null, "AIRPORTCOD": null, "XCOORD": -64.08333, "YCOORD": -39.01667 }, "geometry": { "type": "Point", "coordinates": [ -64.08333, -39.01667004 ] } }
,
{ "type": "Feature", "properties": { "NAME": "RIO CUARTO", "COUNTRY": "ARGENTINA", "ADDTLPLACE": "RIO CUARTO\/AREA DE MATERIAL", "AIRPORTCOD": "RCU", "XCOORD": -64.33333, "YCOORD": -33.16667 }, "geometry": { "type": "Point", "coordinates": [ -64.33332984, -33.16667004 ] } }
,
{ "type": "Feature", "properties": { "NAME": "RIO GALLEGOS", "COUNTRY": "ARGENTINA", "ADDTLPLACE": "RIO GALLEGOS ARPT", "AIRPORTCOD": "RGL", "XCOORD": -69.33333, "YCOORD": -51.61667 }, "geometry": { "type": "Point", "coordinates": [ -69.33332988, -51.61667004 ] } }
,
{ "type": "Feature", "properties": { "NAME": "RIO GRANDE", "COUNTRY": "ARGENTINA", "ADDTLPLACE": "RIO GRANDE AIRPORT", "AIRPORTCOD": "RGA", "XCOORD": -67.76667, "YCOORD": -53.78333 }, "geometry": { "type": "Point", "coordinates": [ -67.76667, -53.78333004 ] } }
,
{ "type": "Feature", "properties": { "NAME": "RIO HONDO", "COUNTRY": "ARGENTINA", "ADDTLPLACE": null, "AIRPORTCOD": "RHD", "XCOORD": -64.91667, "YCOORD": -27.46667 }, "geometry": { "type": "Point", "coordinates": [ -64.91666988, -27.46666998 ] } }
,
{ "type": "Feature", "properties": { "NAME": "RIO MAYO", "COUNTRY": "ARGENTINA", "ADDTLPLACE": null, "AIRPORTCOD": "ROY", "XCOORD": -70.26667, "YCOORD": -45.78333 }, "geometry": { "type": "Point", "coordinates": [ -70.26666984, -45.78333003 ] } }
,
{ "type": "Feature", "properties": { "NAME": "RIO TURBIO", "COUNTRY": "ARGENTINA", "ADDTLPLACE": "EL TURBIO\/RIO TURBI", "AIRPORTCOD": "RYO", "XCOORD": -72.21667, "YCOORD": -51.6 }, "geometry": { "type": "Point", "coordinates": [ -72.21666996, -51.59999997 ] } }
,
{ "type": "Feature", "properties": { "NAME": "RIVADAVIA", "COUNTRY": "ARGENTINA", "ADDTLPLACE": null, "AIRPORTCOD": null, "XCOORD": -62.9, "YCOORD": -24.16667 }, "geometry": { "type": "Point", "coordinates": [ -62.89999992, -24.16667004 ] } }
,
{ "type": "Feature", "properties": { "NAME": "ROSARIO", "COUNTRY": "ARGENTINA", "ADDTLPLACE": "ROSARIO AIRPORT", "AIRPORTCOD": "ROS", "XCOORD": -60.78333, "YCOORD": -32.91667 }, "geometry": { "type": "Point", "coordinates": [ -60.78332988, -32.91667002 ] } }
,
{ "type": "Feature", "properties": { "NAME": "SALTA", "COUNTRY": "ARGENTINA", "ADDTLPLACE": "SALTA AIRPORT", "AIRPORTCOD": "SLA", "XCOORD": -65.46667, "YCOORD": -24.85 }, "geometry": { "type": "Point", "coordinates": [ -65.46666996, -24.84999999 ] } }
,
{ "type": "Feature", "properties": { "NAME": "SAN ANTONIO OESTE", "COUNTRY": "ARGENTINA", "ADDTLPLACE": "ANTOINE DE ST-EXUPERY", "AIRPORTCOD": "OES", "XCOORD": -64.95, "YCOORD": -40.73333 }, "geometry": { "type": "Point", "coordinates": [ -64.95000012, -40.73333004 ] } }
,
{ "type": "Feature", "properties": { "NAME": "SAN CARLOS", "COUNTRY": "ARGENTINA", "ADDTLPLACE": null, "AIRPORTCOD": null, "XCOORD": -69.03333, "YCOORD": -33.76667 }, "geometry": { "type": "Point", "coordinates": [ -69.03333, -33.76666998 ] } }
,
{ "type": "Feature", "properties": { "NAME": "SAN CARLOS DE BARILOCHE", "COUNTRY": "ARGENTINA", "ADDTLPLACE": "SAN CARLOS BARILOCH", "AIRPORTCOD": "BRC", "XCOORD": -71.16667, "YCOORD": -41.15 }, "geometry": { "type": "Point", "coordinates": [ -71.16666984, -41.14999998 ] } }
,
{ "type": "Feature", "properties": { "NAME": "SAN JUAN", "COUNTRY": "ARGENTINA", "ADDTLPLACE": "SAN JUAN AIRPORT", "AIRPORTCOD": "UAQ", "XCOORD": -68.41667, "YCOORD": -31.56667 }, "geometry": { "type": "Point", "coordinates": [ -68.41667016, -31.56667002 ] } }
,
{ "type": "Feature", "properties": { "NAME": "SAN JULIAN", "COUNTRY": "ARGENTINA", "ADDTLPLACE": "CAPITAN JOSE D. VASQUEZ", "AIRPORTCOD": "ULA", "XCOORD": -67.8, "YCOORD": -49.3 }, "geometry": { "type": "Point", "coordinates": [ -67.79999988, -49.30000002 ] } }
,
{ "type": "Feature", "properties": { "NAME": "SAN LUIS", "COUNTRY": "ARGENTINA", "ADDTLPLACE": "SAN LUIS AIRPORT", "AIRPORTCOD": "LUQ", "XCOORD": -66.35, "YCOORD": -33.28333 }, "geometry": { "type": "Point", "coordinates": [ -66.35000016, -33.28333002 ] } }
,
{ "type": "Feature", "properties": { "NAME": "SAN MARTIN", "COUNTRY": "ARGENTINA", "ADDTLPLACE": null, "AIRPORTCOD": null, "XCOORD": -68.41667, "YCOORD": -33.08333 }, "geometry": { "type": "Point", "coordinates": [ -68.41667016, -33.08333004 ] } }
,
{ "type": "Feature", "properties": { "NAME": "SAN MARTIN DE LOS ANDES", "COUNTRY": "ARGENTINA", "ADDTLPLACE": "CHAPELCO", "AIRPORTCOD": "CPC", "XCOORD": -71.13333, "YCOORD": -40.08333 }, "geometry": { "type": "Point", "coordinates": [ -71.13332988, -40.08332997 ] } }
,
{ "type": "Feature", "properties": { "NAME": "SAN RAFAEL", "COUNTRY": "ARGENTINA", "ADDTLPLACE": "SAN RAFAEL AIRPORT", "AIRPORTCOD": "AFA", "XCOORD": -68.4, "YCOORD": -34.58333 }, "geometry": { "type": "Point", "coordinates": [ -68.4, -34.58332998 ] } }
,
{ "type": "Feature", "properties": { "NAME": "SANTA CRUZ", "COUNTRY": "ARGENTINA", "ADDTLPLACE": "SANTA CRUZ AIRPORT", "AIRPORTCOD": "RZA", "XCOORD": -68.58333, "YCOORD": -50.03333 }, "geometry": { "type": "Point", "coordinates": [ -68.58333, -50.03333001 ] } }
,
{ "type": "Feature", "properties": { "NAME": "SANTA FE", "COUNTRY": "ARGENTINA", "ADDTLPLACE": "SAUCE VIEJO", "AIRPORTCOD": "SFN", "XCOORD": -60.81667, "YCOORD": -31.71667 }, "geometry": { "type": "Point", "coordinates": [ -60.81666984, -31.71666996 ] } }
,
{ "type": "Feature", "properties": { "NAME": "SANTA ROSA", "COUNTRY": "ARGENTINA", "ADDTLPLACE": "SANTA ROSA AIRPORT", "AIRPORTCOD": "RSA", "XCOORD": -64.26667, "YCOORD": -36.56667 }, "geometry": { "type": "Point", "coordinates": [ -64.26667008, -36.56666997 ] } }
,
{ "type": "Feature", "properties": { "NAME": "SANTIAGO DEL ESTERO", "COUNTRY": "ARGENTINA", "ADDTLPLACE": null, "AIRPORTCOD": "SDE", "XCOORD": -64.31667, "YCOORD": -27.76667 }, "geometry": { "type": "Point", "coordinates": [ -64.31667012, -27.76667004 ] } }
,
{ "type": "Feature", "properties": { "NAME": "TANDIL", "COUNTRY": "ARGENTINA", "ADDTLPLACE": "TANDIL AIRPORT", "AIRPORTCOD": "TDL", "XCOORD": -59.2, "YCOORD": -37.23333 }, "geometry": { "type": "Point", "coordinates": [ -59.19999984, -37.23333003 ] } }
,
{ "type": "Feature", "properties": { "NAME": "TARTAGAL", "COUNTRY": "ARGENTINA", "ADDTLPLACE": "GENERAL ENRIQUE MOSC", "AIRPORTCOD": "TTG", "XCOORD": -63.81667, "YCOORD": -22.65 }, "geometry": { "type": "Point", "coordinates": [ -63.81667008, -22.65000003 ] } }
,
{ "type": "Feature", "properties": { "NAME": "TINOGASTA", "COUNTRY": "ARGENTINA", "ADDTLPLACE": null, "AIRPORTCOD": null, "XCOORD": -67.56667, "YCOORD": -28.06667 }, "geometry": { "type": "Point", "coordinates": [ -67.566669839999989, -28.06667001 ] } }
,
{ "type": "Feature", "properties": { "NAME": "TRELEW", "COUNTRY": "ARGENTINA", "ADDTLPLACE": "ALMIRANTE ZAR", "AIRPORTCOD": "REL", "XCOORD": -65.31667, "YCOORD": -43.23333 }, "geometry": { "type": "Point", "coordinates": [ -65.316669839999989, -43.23332997 ] } }
,
{ "type": "Feature", "properties": { "NAME": "TRES ARROYOS", "COUNTRY": "ARGENTINA", "ADDTLPLACE": null, "AIRPORTCOD": "OYO", "XCOORD": -60.33333, "YCOORD": -38.38333 }, "geometry": { "type": "Point", "coordinates": [ -60.33332988, -38.38332996 ] } }
,
{ "type": "Feature", "properties": { "NAME": "TUCUMAN (SAN MIGUEL TUCUMAN)", "COUNTRY": "ARGENTINA", "ADDTLPLACE": "TENIENTE BEN MATIENZ", "AIRPORTCOD": "TUC", "XCOORD": -65.2, "YCOORD": -26.83333 }, "geometry": { "type": "Point", "coordinates": [ -65.19999996, -26.83332999 ] } }
,
{ "type": "Feature", "properties": { "NAME": "USHUAIA", "COUNTRY": "ARGENTINA", "ADDTLPLACE": "USHUAIA (ARG-NAVY)", "AIRPORTCOD": "USH", "XCOORD": -68.31667, "YCOORD": -54.81667 }, "geometry": { "type": "Point", "coordinates": [ -68.31667008, -54.81666999 ] } }
,
{ "type": "Feature", "properties": { "NAME": "USPALLATA", "COUNTRY": "ARGENTINA", "ADDTLPLACE": null, "AIRPORTCOD": null, "XCOORD": -69.33333, "YCOORD": -32.6 }, "geometry": { "type": "Point", "coordinates": [ -69.33332988, -32.59999998 ] } }
,
{ "type": "Feature", "properties": { "NAME": "VALCHETA", "COUNTRY": "ARGENTINA", "ADDTLPLACE": null, "AIRPORTCOD": "VCF", "XCOORD": -66.15, "YCOORD": -40.7 }, "geometry": { "type": "Point", "coordinates": [ -66.15, -40.69999998 ] } }
,
{ "type": "Feature", "properties": { "NAME": "VIEDMA", "COUNTRY": "ARGENTINA", "ADDTLPLACE": "GOBERNADOR CASTELLO", "AIRPORTCOD": "VDM", "XCOORD": -63.01667, "YCOORD": -40.85 }, "geometry": { "type": "Point", "coordinates": [ -63.01667016, -40.85000001 ] } }
,
{ "type": "Feature", "properties": { "NAME": "VILLA DOLORES", "COUNTRY": "ARGENTINA", "ADDTLPLACE": "VILLA DOLORES ARPT", "AIRPORTCOD": "VDR", "XCOORD": -65.13333, "YCOORD": -31.93333 }, "geometry": { "type": "Point", "coordinates": [ -65.13333012, -31.93333002 ] } }
,
{ "type": "Feature", "properties": { "NAME": "VILLA GESELL", "COUNTRY": "ARGENTINA", "ADDTLPLACE": null, "AIRPORTCOD": "VLG", "XCOORD": -57.03333, "YCOORD": -37.23333 }, "geometry": { "type": "Point", "coordinates": [ -57.03333012, -37.23333003 ] } }
,
{ "type": "Feature", "properties": { "NAME": "VILLA MARIA DEL RIO", "COUNTRY": "ARGENTINA", "ADDTLPLACE": null, "AIRPORTCOD": null, "XCOORD": -63.68333, "YCOORD": -29.9 }, "geometry": { "type": "Point", "coordinates": [ -63.68333004, -29.89999998 ] } }
,
{ "type": "Feature", "properties": { "NAME": "VILLA MERCEDES", "COUNTRY": "ARGENTINA", "ADDTLPLACE": null, "AIRPORTCOD": "VME", "XCOORD": -65.41667, "YCOORD": -33.63333 }, "geometry": { "type": "Point", "coordinates": [ -65.41666992, -33.63333003 ] } }
,
{ "type": "Feature", "properties": { "NAME": "VILLA REYNOLDS ARPT", "COUNTRY": "ARGENTINA", "ADDTLPLACE": null, "AIRPORTCOD": null, "XCOORD": -65.38333, "YCOORD": -33.73333 }, "geometry": { "type": "Point", "coordinates": [ -65.38332996, -33.73333002 ] } }
,
{ "type": "Feature", "properties": { "NAME": "VILLAGUAY", "COUNTRY": "ARGENTINA", "ADDTLPLACE": null, "AIRPORTCOD": null, "XCOORD": -59.08333, "YCOORD": -31.85 }, "geometry": { "type": "Point", "coordinates": [ -59.08332996, -31.85000001 ] } }
,
{ "type": "Feature", "properties": { "NAME": "ZAPALA", "COUNTRY": "ARGENTINA", "ADDTLPLACE": null, "AIRPORTCOD": "APZ", "XCOORD": -70.06667, "YCOORD": -38.9 }, "geometry": { "type": "Point", "coordinates": [ -70.06667004, -38.89999998 ] } }
,
{ "type": "Feature", "properties": { "NAME": "EREVAN (YEREVAN)", "COUNTRY": "ARMENIA", "ADDTLPLACE": "ZAPADNY", "AIRPORTCOD": "EVN", "XCOORD": 4.4, "YCOORD": 40.15 }, "geometry": { "type": "Point", "coordinates": [ 4.39999992, 40.14999999 ] } }
,
{ "type": "Feature", "properties": { "NAME": "ORANJESTAD", "COUNTRY": "ARUBA", "ADDTLPLACE": "QUEEN BEATRIX INTERNATIONAL AIRPORT", "AIRPORTCOD": "AUA", "XCOORD": -70.01667, "YCOORD": 12.5 }, "geometry": { "type": "Point", "coordinates": [ -70.01667, 12.50000001 ] } }
,
{ "type": "Feature", "properties": { "NAME": "ABINGDON DOWNS", "COUNTRY": "AUSTRALIA", "ADDTLPLACE": null, "AIRPORTCOD": "ABG", "XCOORD": 143.18333, "YCOORD": -17.61667 }, "geometry": { "type": "Point", "coordinates": [ 143.183329919999977, -17.61667002 ] } }
,
{ "type": "Feature", "properties": { "NAME": "ADELAIDE", "COUNTRY": "AUSTRALIA", "ADDTLPLACE": "INTERNATIONAL", "AIRPORTCOD": "ADL", "XCOORD": 138.53333, "YCOORD": -34.95 }, "geometry": { "type": "Point", "coordinates": [ 138.53333016, -34.94999997 ] } }
,
{ "type": "Feature", "properties": { "NAME": "ADELAIDE\/PARAFIELD", "COUNTRY": "AUSTRALIA", "ADDTLPLACE": null, "AIRPORTCOD": null, "XCOORD": 138.63333, "YCOORD": -34.78333 }, "geometry": { "type": "Point", "coordinates": [ 138.63332988, -34.78332996 ] } }
,
{ "type": "Feature", "properties": { "NAME": "AGNEW", "COUNTRY": "AUSTRALIA", "ADDTLPLACE": null, "AIRPORTCOD": "AGW", "XCOORD": 142.15, "YCOORD": -12.15 }, "geometry": { "type": "Point", "coordinates": [ 142.14999996, -12.15 ] } }
,
{ "type": "Feature", "properties": { "NAME": "ALBANY", "COUNTRY": "AUSTRALIA", "ADDTLPLACE": "ALBANY AIRPORT", "AIRPORTCOD": "ALH", "XCOORD": 117.8, "YCOORD": -34.95 }, "geometry": { "type": "Point", "coordinates": [ 117.79999992, -34.94999997 ] } }
,
{ "type": "Feature", "properties": { "NAME": "ALBURY", "COUNTRY": "AUSTRALIA", "ADDTLPLACE": "ALBURY AIRPORT", "AIRPORTCOD": "ABX", "XCOORD": 146.95, "YCOORD": -36.06667 }, "geometry": { "type": "Point", "coordinates": [ 146.949999839999975, -36.06667002 ] } }
,
{ "type": "Feature", "properties": { "NAME": "ALCOOTA", "COUNTRY": "AUSTRALIA", "ADDTLPLACE": null, "AIRPORTCOD": "WCY", "XCOORD": 134.41667, "YCOORD": -22.83333 }, "geometry": { "type": "Point", "coordinates": [ 134.416670039999985, -22.83333003 ] } }
,
{ "type": "Feature", "properties": { "NAME": "ALEXANDRIA", "COUNTRY": "AUSTRALIA", "ADDTLPLACE": null, "AIRPORTCOD": "AXL", "XCOORD": 136.76667, "YCOORD": -19.11667 }, "geometry": { "type": "Point", "coordinates": [ 136.766670119999986, -19.11666996 ] } }
,
{ "type": "Feature", "properties": { "NAME": "ALICE DOWNS", "COUNTRY": "AUSTRALIA", "ADDTLPLACE": null, "AIRPORTCOD": "ADC", "XCOORD": 127.96667, "YCOORD": -17.8 }, "geometry": { "type": "Point", "coordinates": [ 127.966669919999987, -17.80000002 ] } }
,
{ "type": "Feature", "properties": { "NAME": "ALICE SPRINGS", "COUNTRY": "AUSTRALIA", "ADDTLPLACE": "ALICE SPRINGS ARPT", "AIRPORTCOD": "ASP", "XCOORD": 133.9, "YCOORD": -23.8 }, "geometry": { "type": "Point", "coordinates": [ 133.89999984, -23.79999996 ] } }
,
{ "type": "Feature", "properties": { "NAME": "ALPHA", "COUNTRY": "AUSTRALIA", "ADDTLPLACE": null, "AIRPORTCOD": "ABH", "XCOORD": 146.58333, "YCOORD": -23.7 }, "geometry": { "type": "Point", "coordinates": [ 146.58333012, -23.69999997 ] } }
,
{ "type": "Feature", "properties": { "NAME": "ALROY DOWNS", "COUNTRY": "AUSTRALIA", "ADDTLPLACE": null, "AIRPORTCOD": "AYD", "XCOORD": 135.95, "YCOORD": -19.3 }, "geometry": { "type": "Point", "coordinates": [ 135.95000004, -19.29999996 ] } }
,
{ "type": "Feature", "properties": { "NAME": "ALTON DOWNS", "COUNTRY": "AUSTRALIA", "ADDTLPLACE": null, "AIRPORTCOD": "AWN", "XCOORD": 139.31667, "YCOORD": -26.48333 }, "geometry": { "type": "Point", "coordinates": [ 139.31667, -26.48332998 ] } }
,
{ "type": "Feature", "properties": { "NAME": "AMBERLEY (AUS-AFB)", "COUNTRY": "AUSTRALIA", "ADDTLPLACE": null, "AIRPORTCOD": null, "XCOORD": 152.71667, "YCOORD": -27.63333 }, "geometry": { "type": "Point", "coordinates": [ 152.716669919999987, -27.63333 ] } }
,
{ "type": "Feature", "properties": { "NAME": "AMERICAN RIVER", "COUNTRY": "AUSTRALIA", "ADDTLPLACE": null, "AIRPORTCOD": "RCN", "XCOORD": 137.78333, "YCOORD": -35.78333 }, "geometry": { "type": "Point", "coordinates": [ 137.78332992, -35.78333004 ] } }
,
{ "type": "Feature", "properties": { "NAME": "AMMAROO", "COUNTRY": "AUSTRALIA", "ADDTLPLACE": null, "AIRPORTCOD": "AMX", "XCOORD": 135.23333, "YCOORD": -21.73333 }, "geometry": { "type": "Point", "coordinates": [ 135.23333004, -21.73332996 ] } }
,
{ "type": "Feature", "properties": { "NAME": "ANDAMOOKA", "COUNTRY": "AUSTRALIA", "ADDTLPLACE": null, "AIRPORTCOD": "ADO", "XCOORD": 137.2, "YCOORD": -30.38333 }, "geometry": { "type": "Point", "coordinates": [ 137.199999959999985, -30.38333004 ] } }
,
{ "type": "Feature", "properties": { "NAME": "ANGUS DOWNS", "COUNTRY": "AUSTRALIA", "ADDTLPLACE": null, "AIRPORTCOD": "ANZ", "XCOORD": 132.26667, "YCOORD": -25.03333 }, "geometry": { "type": "Point", "coordinates": [ 132.266670119999986, -25.03332999 ] } }
,
{ "type": "Feature", "properties": { "NAME": "ANTHONY LAGOON", "COUNTRY": "AUSTRALIA", "ADDTLPLACE": null, "AIRPORTCOD": "AYL", "XCOORD": 135.55, "YCOORD": -18.01667 }, "geometry": { "type": "Point", "coordinates": [ 135.55000008, -18.01666998 ] } }
,
{ "type": "Feature", "properties": { "NAME": "ARAMAC", "COUNTRY": "AUSTRALIA", "ADDTLPLACE": null, "AIRPORTCOD": "AXC", "XCOORD": 145.23333, "YCOORD": -22.96667 }, "geometry": { "type": "Point", "coordinates": [ 145.233330119999977, -22.96666998 ] } }
,
{ "type": "Feature", "properties": { "NAME": "ARARAT", "COUNTRY": "AUSTRALIA", "ADDTLPLACE": null, "AIRPORTCOD": "ARY", "XCOORD": 142.93333, "YCOORD": -37.28333 }, "geometry": { "type": "Point", "coordinates": [ 142.93333008, -37.28332998 ] } }
,
{ "type": "Feature", "properties": { "NAME": "ARCHEFIELD\/BRISBANE", "COUNTRY": "AUSTRALIA", "ADDTLPLACE": null, "AIRPORTCOD": null, "XCOORD": 153.0, "YCOORD": -27.56667 }, "geometry": { "type": "Point", "coordinates": [ 153.0, -27.56666997 ] } }
,
{ "type": "Feature", "properties": { "NAME": "ARGADARGADA", "COUNTRY": "AUSTRALIA", "ADDTLPLACE": null, "AIRPORTCOD": "ARF", "XCOORD": 136.66667, "YCOORD": -21.68333 }, "geometry": { "type": "Point", "coordinates": [ 136.666670039999985, -21.68333001 ] } }
,
{ "type": "Feature", "properties": { "NAME": "ARGYLE DOWNS", "COUNTRY": "AUSTRALIA", "ADDTLPLACE": null, "AIRPORTCOD": "AGY", "XCOORD": 128.76667, "YCOORD": -16.33333 }, "geometry": { "type": "Point", "coordinates": [ 128.76666984, -16.33332996 ] } }
,
{ "type": "Feature", "properties": { "NAME": "ARMIDALE", "COUNTRY": "AUSTRALIA", "ADDTLPLACE": "ARMIDALE", "AIRPORTCOD": "ARM", "XCOORD": 151.6, "YCOORD": -30.53333 }, "geometry": { "type": "Point", "coordinates": [ 151.59999996, -30.53332998 ] } }
,
{ "type": "Feature", "properties": { "NAME": "ARRABURY", "COUNTRY": "AUSTRALIA", "ADDTLPLACE": null, "AIRPORTCOD": "AAB", "XCOORD": 141.05, "YCOORD": -26.7 }, "geometry": { "type": "Point", "coordinates": [ 141.05000016, -26.70000003 ] } }
,
{ "type": "Feature", "properties": { "NAME": "AUGUSTUS DOWNS", "COUNTRY": "AUSTRALIA", "ADDTLPLACE": null, "AIRPORTCOD": "AUD", "XCOORD": 139.88333, "YCOORD": -18.51667 }, "geometry": { "type": "Point", "coordinates": [ 139.883330159999986, -18.51667002 ] } }
,
{ "type": "Feature", "properties": { "NAME": "AURUKUN MISSION", "COUNTRY": "AUSTRALIA", "ADDTLPLACE": null, "AIRPORTCOD": "AUU", "XCOORD": 141.71667, "YCOORD": -13.35 }, "geometry": { "type": "Point", "coordinates": [ 141.71667012, -13.34999997 ] } }
,
{ "type": "Feature", "properties": { "NAME": "AUSTRAL DOWNS", "COUNTRY": "AUSTRALIA", "ADDTLPLACE": null, "AIRPORTCOD": "AWP", "XCOORD": 137.25, "YCOORD": -20.33333 }, "geometry": { "type": "Point", "coordinates": [ 137.25, -20.33333001 ] } }
,
{ "type": "Feature", "properties": { "NAME": "AUVERGNE", "COUNTRY": "AUSTRALIA", "ADDTLPLACE": null, "AIRPORTCOD": "AVG", "XCOORD": 130.01667, "YCOORD": -15.7 }, "geometry": { "type": "Point", "coordinates": [ 130.016670119999986, -15.69999996 ] } }
,
{ "type": "Feature", "properties": { "NAME": "AYERS ROCK", "COUNTRY": "AUSTRALIA", "ADDTLPLACE": "CONNELLAN", "AIRPORTCOD": "AYQ", "XCOORD": 131.05, "YCOORD": -25.33333 }, "geometry": { "type": "Point", "coordinates": [ 131.05000008, -25.33332996 ] } }
,
{ "type": "Feature", "properties": { "NAME": "AYR", "COUNTRY": "AUSTRALIA", "ADDTLPLACE": null, "AIRPORTCOD": "AYR", "XCOORD": 147.31667, "YCOORD": -19.6 }, "geometry": { "type": "Point", "coordinates": [ 147.316669919999981, -19.60000002 ] } }
,
{ "type": "Feature", "properties": { "NAME": "BADU ISLAND", "COUNTRY": "AUSTRALIA", "ADDTLPLACE": null, "AIRPORTCOD": "BDD", "XCOORD": 142.13333, "YCOORD": -10.11667 }, "geometry": { "type": "Point", "coordinates": [ 142.133330159999986, -10.11666996 ] } }
,
{ "type": "Feature", "properties": { "NAME": "BAIRNSDALE", "COUNTRY": "AUSTRALIA", "ADDTLPLACE": null, "AIRPORTCOD": "BSJ", "XCOORD": 147.56667, "YCOORD": -37.88333 }, "geometry": { "type": "Point", "coordinates": [ 147.56667012, -37.88333001 ] } }
,
{ "type": "Feature", "properties": { "NAME": "BALCANOONA", "COUNTRY": "AUSTRALIA", "ADDTLPLACE": null, "AIRPORTCOD": "LCN", "XCOORD": 139.3, "YCOORD": -30.51667 }, "geometry": { "type": "Point", "coordinates": [ 139.29999984, -30.51666999 ] } }
,
{ "type": "Feature", "properties": { "NAME": "BALGO HILLS", "COUNTRY": "AUSTRALIA", "ADDTLPLACE": null, "AIRPORTCOD": "BQW", "XCOORD": 127.95, "YCOORD": -20.16667 }, "geometry": { "type": "Point", "coordinates": [ 127.950000119999984, -20.16666999 ] } }
,
{ "type": "Feature", "properties": { "NAME": "BALLINA", "COUNTRY": "AUSTRALIA", "ADDTLPLACE": null, "AIRPORTCOD": "BNK", "XCOORD": 153.55, "YCOORD": -28.86667 }, "geometry": { "type": "Point", "coordinates": [ 153.55000008, -28.86667002 ] } }
,
{ "type": "Feature", "properties": { "NAME": "BALRANALD", "COUNTRY": "AUSTRALIA", "ADDTLPLACE": null, "AIRPORTCOD": "BZD", "XCOORD": 143.55, "YCOORD": -34.63333 }, "geometry": { "type": "Point", "coordinates": [ 143.55, -34.63333002 ] } }
,
{ "type": "Feature", "properties": { "NAME": "BAMBOO SPRINGS", "COUNTRY": "AUSTRALIA", "ADDTLPLACE": null, "AIRPORTCOD": "BBB", "XCOORD": 119.63333, "YCOORD": -22.03333 }, "geometry": { "type": "Point", "coordinates": [ 119.633330159999986, -22.03333002 ] } }
,
{ "type": "Feature", "properties": { "NAME": "BANKSTOWN", "COUNTRY": "AUSTRALIA", "ADDTLPLACE": "BANKSTOWN AIRPORT", "AIRPORTCOD": "BWU", "XCOORD": 150.98333, "YCOORD": -33.91667 }, "geometry": { "type": "Point", "coordinates": [ 150.98333004, -33.91667001 ] } }
,
{ "type": "Feature", "properties": { "NAME": "BARCALDINE", "COUNTRY": "AUSTRALIA", "ADDTLPLACE": null, "AIRPORTCOD": "BCI", "XCOORD": 145.3, "YCOORD": -23.56667 }, "geometry": { "type": "Point", "coordinates": [ 145.29999996, -23.56667001 ] } }
,
{ "type": "Feature", "properties": { "NAME": "BARKLY DOWNS", "COUNTRY": "AUSTRALIA", "ADDTLPLACE": null, "AIRPORTCOD": "BKP", "XCOORD": 138.25, "YCOORD": -21.03333 }, "geometry": { "type": "Point", "coordinates": [ 138.250000079999978, -21.03333003 ] } }
,
{ "type": "Feature", "properties": { "NAME": "BARROW ISLAND", "COUNTRY": "AUSTRALIA", "ADDTLPLACE": null, "AIRPORTCOD": "BWB", "XCOORD": 115.43333, "YCOORD": -20.78333 }, "geometry": { "type": "Point", "coordinates": [ 115.433330039999987, -20.78333001 ] } }
,
{ "type": "Feature", "properties": { "NAME": "BATAVIA DOWNS", "COUNTRY": "AUSTRALIA", "ADDTLPLACE": null, "AIRPORTCOD": "BVW", "XCOORD": 142.66667, "YCOORD": -12.65 }, "geometry": { "type": "Point", "coordinates": [ 142.66667016, -12.65000004 ] } }
,
{ "type": "Feature", "properties": { "NAME": "BATEMANS BAY", "COUNTRY": "AUSTRALIA", "ADDTLPLACE": null, "AIRPORTCOD": "QBW", "XCOORD": 150.18333, "YCOORD": -35.71667 }, "geometry": { "type": "Point", "coordinates": [ 150.18333012, -35.71667001 ] } }
,
{ "type": "Feature", "properties": { "NAME": "BATHURST", "COUNTRY": "AUSTRALIA", "ADDTLPLACE": null, "AIRPORTCOD": "BHS", "XCOORD": 149.65, "YCOORD": -33.41667 }, "geometry": { "type": "Point", "coordinates": [ 149.64999984, -33.41666997 ] } }
,
{ "type": "Feature", "properties": { "NAME": "BATHURST ISLAND", "COUNTRY": "AUSTRALIA", "ADDTLPLACE": null, "AIRPORTCOD": "BRT", "XCOORD": 130.63333, "YCOORD": -11.76667 }, "geometry": { "type": "Point", "coordinates": [ 130.63332996, -11.76667002 ] } }
,
{ "type": "Feature", "properties": { "NAME": "BEAGLE BAY", "COUNTRY": "AUSTRALIA", "ADDTLPLACE": null, "AIRPORTCOD": "BEE", "XCOORD": 142.0, "YCOORD": -13.0 }, "geometry": { "type": "Point", "coordinates": [ 141.999999839999987, -12.99999996 ] } }
,
{ "type": "Feature", "properties": { "NAME": "BEDFORD DOWNS", "COUNTRY": "AUSTRALIA", "ADDTLPLACE": null, "AIRPORTCOD": "BDW", "XCOORD": 127.46667, "YCOORD": -17.3 }, "geometry": { "type": "Point", "coordinates": [ 127.466669879999984, -17.29999998 ] } }
,
{ "type": "Feature", "properties": { "NAME": "BEDOURIE", "COUNTRY": "AUSTRALIA", "ADDTLPLACE": null, "AIRPORTCOD": "BEU", "XCOORD": 139.45, "YCOORD": -24.23333 }, "geometry": { "type": "Point", "coordinates": [ 139.449999959999985, -24.23332998 ] } }
,
{ "type": "Feature", "properties": { "NAME": "BEGA", "COUNTRY": "AUSTRALIA", "ADDTLPLACE": null, "AIRPORTCOD": "QBE", "XCOORD": 149.83333, "YCOORD": -36.66667 }, "geometry": { "type": "Point", "coordinates": [ 149.833329839999976, -36.66666996 ] } }
,
{ "type": "Feature", "properties": { "NAME": "BENALLA", "COUNTRY": "AUSTRALIA", "ADDTLPLACE": null, "AIRPORTCOD": "BLN", "XCOORD": 145.98333, "YCOORD": -36.55 }, "geometry": { "type": "Point", "coordinates": [ 145.98333, -36.54999999 ] } }
,
{ "type": "Feature", "properties": { "NAME": "BETOOTA", "COUNTRY": "AUSTRALIA", "ADDTLPLACE": null, "AIRPORTCOD": "BTX", "XCOORD": 140.8, "YCOORD": -25.63333 }, "geometry": { "type": "Point", "coordinates": [ 140.79999996, -25.63333002 ] } }
,
{ "type": "Feature", "properties": { "NAME": "BEVERLEY SPRINGS", "COUNTRY": "AUSTRALIA", "ADDTLPLACE": null, "AIRPORTCOD": "BVY", "XCOORD": 125.43333, "YCOORD": -16.73333 }, "geometry": { "type": "Point", "coordinates": [ 125.43333012, -16.73333001 ] } }
,
{ "type": "Feature", "properties": { "NAME": "BIG BELL", "COUNTRY": "AUSTRALIA", "ADDTLPLACE": null, "AIRPORTCOD": "BBE", "XCOORD": 117.66667, "YCOORD": -27.33333 }, "geometry": { "type": "Point", "coordinates": [ 117.66666996, -27.33333003 ] } }
,
{ "type": "Feature", "properties": { "NAME": "BILLILUNA STATION", "COUNTRY": "AUSTRALIA", "ADDTLPLACE": null, "AIRPORTCOD": "BIW", "XCOORD": 127.63333, "YCOORD": -19.58333 }, "geometry": { "type": "Point", "coordinates": [ 127.63333008, -19.58333004 ] } }
,
{ "type": "Feature", "properties": { "NAME": "BIRDSVILLE", "COUNTRY": "AUSTRALIA", "ADDTLPLACE": "BIRDSVILLE", "AIRPORTCOD": "BVI", "XCOORD": 139.35, "YCOORD": -25.9 }, "geometry": { "type": "Point", "coordinates": [ 139.349999879999984, -25.90000002 ] } }
,
{ "type": "Feature", "properties": { "NAME": "BIRRINDUDU", "COUNTRY": "AUSTRALIA", "ADDTLPLACE": null, "AIRPORTCOD": "BBU", "XCOORD": 129.41667, "YCOORD": -18.38333 }, "geometry": { "type": "Point", "coordinates": [ 129.41667, -18.38332998 ] } }
,
{ "type": "Feature", "properties": { "NAME": "BIZANT", "COUNTRY": "AUSTRALIA", "ADDTLPLACE": null, "AIRPORTCOD": "BZP", "XCOORD": 141.23333, "YCOORD": -15.21667 }, "geometry": { "type": "Point", "coordinates": [ 141.23333016, -15.21666999 ] } }
,
{ "type": "Feature", "properties": { "NAME": "BLACKALL", "COUNTRY": "AUSTRALIA", "ADDTLPLACE": null, "AIRPORTCOD": "BKQ", "XCOORD": 145.41667, "YCOORD": -24.41667 }, "geometry": { "type": "Point", "coordinates": [ 145.41666984, -24.41666997 ] } }
,
{ "type": "Feature", "properties": { "NAME": "BLACKWATER", "COUNTRY": "AUSTRALIA", "ADDTLPLACE": null, "AIRPORTCOD": "BLT", "XCOORD": 148.88333, "YCOORD": -23.58333 }, "geometry": { "type": "Point", "coordinates": [ 148.883330159999986, -23.58333 ] } }
,
{ "type": "Feature", "properties": { "NAME": "BOHEMIA DOWNS", "COUNTRY": "AUSTRALIA", "ADDTLPLACE": null, "AIRPORTCOD": "BWW", "XCOORD": 126.25, "YCOORD": -18.88333 }, "geometry": { "type": "Point", "coordinates": [ 126.249999839999987, -18.88333002 ] } }
,
{ "type": "Feature", "properties": { "NAME": "BOIGU ISLAND", "COUNTRY": "AUSTRALIA", "ADDTLPLACE": null, "AIRPORTCOD": "GIC", "XCOORD": 142.2, "YCOORD": -9.26667 }, "geometry": { "type": "Point", "coordinates": [ 142.2, -9.26667 ] } }
,
{ "type": "Feature", "properties": { "NAME": "BOLLON", "COUNTRY": "AUSTRALIA", "ADDTLPLACE": null, "AIRPORTCOD": "BLS", "XCOORD": 147.48333, "YCOORD": -28.05 }, "geometry": { "type": "Point", "coordinates": [ 147.483330119999977, -28.05000003 ] } }
,
{ "type": "Feature", "properties": { "NAME": "BOLWORRA", "COUNTRY": "AUSTRALIA", "ADDTLPLACE": null, "AIRPORTCOD": "BCK", "XCOORD": 144.16667, "YCOORD": -17.4 }, "geometry": { "type": "Point", "coordinates": [ 144.166669919999975, -17.39999997 ] } }
,
{ "type": "Feature", "properties": { "NAME": "BORROLOOLA", "COUNTRY": "AUSTRALIA", "ADDTLPLACE": null, "AIRPORTCOD": "BOX", "XCOORD": 136.3, "YCOORD": -16.08333 }, "geometry": { "type": "Point", "coordinates": [ 136.29999996, -16.08333003 ] } }
,
{ "type": "Feature", "properties": { "NAME": "BOULIA", "COUNTRY": "AUSTRALIA", "ADDTLPLACE": null, "AIRPORTCOD": "BQL", "XCOORD": 139.96667, "YCOORD": -22.96667 }, "geometry": { "type": "Point", "coordinates": [ 139.966670159999978, -22.96666998 ] } }
,
{ "type": "Feature", "properties": { "NAME": "BOURKE", "COUNTRY": "AUSTRALIA", "ADDTLPLACE": null, "AIRPORTCOD": "BRK", "XCOORD": 145.95, "YCOORD": -30.05 }, "geometry": { "type": "Point", "coordinates": [ 145.95000012, -30.05000001 ] } }
,
{ "type": "Feature", "properties": { "NAME": "BOWEN", "COUNTRY": "AUSTRALIA", "ADDTLPLACE": null, "AIRPORTCOD": "ZBO", "XCOORD": 148.21667, "YCOORD": -20.01667 }, "geometry": { "type": "Point", "coordinates": [ 148.216669919999987, -20.01666996 ] } }
,
{ "type": "Feature", "properties": { "NAME": "BRAMPTON ISLAND", "COUNTRY": "AUSTRALIA", "ADDTLPLACE": null, "AIRPORTCOD": "BMP", "XCOORD": 149.23333, "YCOORD": -20.78333 }, "geometry": { "type": "Point", "coordinates": [ 149.23333008, -20.78333001 ] } }
,
{ "type": "Feature", "properties": { "NAME": "BREWARRINA", "COUNTRY": "AUSTRALIA", "ADDTLPLACE": null, "AIRPORTCOD": "BWQ", "XCOORD": 146.81667, "YCOORD": -29.96667 }, "geometry": { "type": "Point", "coordinates": [ 146.816669879999978, -29.96667 ] } }
,
{ "type": "Feature", "properties": { "NAME": "BRIGHT", "COUNTRY": "AUSTRALIA", "ADDTLPLACE": null, "AIRPORTCOD": "BRJ", "XCOORD": 146.96667, "YCOORD": -36.73333 }, "geometry": { "type": "Point", "coordinates": [ 146.96667, -36.73332999 ] } }
,
{ "type": "Feature", "properties": { "NAME": "BRIGHTON DOWNS", "COUNTRY": "AUSTRALIA", "ADDTLPLACE": null, "AIRPORTCOD": "BHT", "XCOORD": 141.55, "YCOORD": -23.35 }, "geometry": { "type": "Point", "coordinates": [ 141.54999984, -23.34999996 ] } }
,
{ "type": "Feature", "properties": { "NAME": "BRISBANE", "COUNTRY": "AUSTRALIA", "ADDTLPLACE": "BRISBANE INTL ARPT", "AIRPORTCOD": "BNE", "XCOORD": 153.08333, "YCOORD": -27.41667 }, "geometry": { "type": "Point", "coordinates": [ 153.083329919999983, -27.41667003 ] } }
,
{ "type": "Feature", "properties": { "NAME": "BROKEN HILL", "COUNTRY": "AUSTRALIA", "ADDTLPLACE": "BROKEN HILL", "AIRPORTCOD": "BHQ", "XCOORD": 141.46667, "YCOORD": -32.0 }, "geometry": { "type": "Point", "coordinates": [ 141.466669919999987, -32.0 ] } }
,
{ "type": "Feature", "properties": { "NAME": "BROOME", "COUNTRY": "AUSTRALIA", "ADDTLPLACE": "BROOME AIRPORT", "AIRPORTCOD": "BME", "XCOORD": 122.23333, "YCOORD": -17.95 }, "geometry": { "type": "Point", "coordinates": [ 122.233330079999988, -17.94999996 ] } }
,
{ "type": "Feature", "properties": { "NAME": "BRUNETTE DOWNS", "COUNTRY": "AUSTRALIA", "ADDTLPLACE": null, "AIRPORTCOD": "BTD", "XCOORD": 135.93333, "YCOORD": -18.63333 }, "geometry": { "type": "Point", "coordinates": [ 135.93332988, -18.63333 ] } }
,
{ "type": "Feature", "properties": { "NAME": "BULIMBA", "COUNTRY": "AUSTRALIA", "ADDTLPLACE": null, "AIRPORTCOD": "BIP", "XCOORD": 143.48333, "YCOORD": -16.91667 }, "geometry": { "type": "Point", "coordinates": [ 143.48333016, -16.91667 ] } }
,
{ "type": "Feature", "properties": { "NAME": "BUNBURY", "COUNTRY": "AUSTRALIA", "ADDTLPLACE": null, "AIRPORTCOD": "BUY", "XCOORD": 115.63333, "YCOORD": -33.31667 }, "geometry": { "type": "Point", "coordinates": [ 115.633329839999988, -33.31666998 ] } }
,
{ "type": "Feature", "properties": { "NAME": "BUNDABERG", "COUNTRY": "AUSTRALIA", "ADDTLPLACE": null, "AIRPORTCOD": "BDB", "XCOORD": 152.31667, "YCOORD": -24.9 }, "geometry": { "type": "Point", "coordinates": [ 152.316669959999984, -24.90000003 ] } }
,
{ "type": "Feature", "properties": { "NAME": "BURKETOWN", "COUNTRY": "AUSTRALIA", "ADDTLPLACE": null, "AIRPORTCOD": "BUC", "XCOORD": 139.53333, "YCOORD": -17.75 }, "geometry": { "type": "Point", "coordinates": [ 139.53332988, -17.74999998 ] } }
,
{ "type": "Feature", "properties": { "NAME": "BURNIE (WYNYARD)", "COUNTRY": "AUSTRALIA", "ADDTLPLACE": null, "AIRPORTCOD": "BWT", "XCOORD": 145.9, "YCOORD": -41.06667 }, "geometry": { "type": "Point", "coordinates": [ 145.900000079999984, -41.06666997 ] } }
,
{ "type": "Feature", "properties": { "NAME": "BURREN JUNCTION", "COUNTRY": "AUSTRALIA", "ADDTLPLACE": null, "AIRPORTCOD": "BJT", "XCOORD": 148.91667, "YCOORD": -30.16667 }, "geometry": { "type": "Point", "coordinates": [ 148.91667012, -30.16666998 ] } }
,
{ "type": "Feature", "properties": { "NAME": "BYRON BAY", "COUNTRY": "AUSTRALIA", "ADDTLPLACE": null, "AIRPORTCOD": "QYN", "XCOORD": 153.61667, "YCOORD": -28.65 }, "geometry": { "type": "Point", "coordinates": [ 153.61666992, -28.64999997 ] } }
,
{ "type": "Feature", "properties": { "NAME": "CAIRNS", "COUNTRY": "AUSTRALIA", "ADDTLPLACE": "CAIRNS AIRPORT", "AIRPORTCOD": "CNS", "XCOORD": 145.75, "YCOORD": -16.88333 }, "geometry": { "type": "Point", "coordinates": [ 145.74999996, -16.88333004 ] } }
,
{ "type": "Feature", "properties": { "NAME": "CALOUNDRA", "COUNTRY": "AUSTRALIA", "ADDTLPLACE": null, "AIRPORTCOD": "CUD", "XCOORD": 153.15, "YCOORD": -26.8 }, "geometry": { "type": "Point", "coordinates": [ 153.150000119999987, -26.80000002 ] } }
,
{ "type": "Feature", "properties": { "NAME": "CALVERT HILLS", "COUNTRY": "AUSTRALIA", "ADDTLPLACE": null, "AIRPORTCOD": "CVH", "XCOORD": 137.3, "YCOORD": -17.16667 }, "geometry": { "type": "Point", "coordinates": [ 137.300000039999986, -17.16667002 ] } }
,
{ "type": "Feature", "properties": { "NAME": "CAMDEN", "COUNTRY": "AUSTRALIA", "ADDTLPLACE": "CAMDEN AIRPORT", "AIRPORTCOD": "CDU", "XCOORD": 150.68333, "YCOORD": -34.03333 }, "geometry": { "type": "Point", "coordinates": [ 150.68333016, -34.03332999 ] } }
,
{ "type": "Feature", "properties": { "NAME": "CAMFIELD", "COUNTRY": "AUSTRALIA", "ADDTLPLACE": null, "AIRPORTCOD": "CFI", "XCOORD": 131.28333, "YCOORD": -17.03333 }, "geometry": { "type": "Point", "coordinates": [ 131.283330119999988, -17.03332998 ] } }
,
{ "type": "Feature", "properties": { "NAME": "CAMOOWEAL", "COUNTRY": "AUSTRALIA", "ADDTLPLACE": null, "AIRPORTCOD": "CML", "XCOORD": 138.13333, "YCOORD": -19.91667 }, "geometry": { "type": "Point", "coordinates": [ 138.133329839999988, -19.91666997 ] } }
,
{ "type": "Feature", "properties": { "NAME": "CANBERRA", "COUNTRY": "AUSTRALIA", "ADDTLPLACE": "CANBERRA (CIV\/MIL)", "AIRPORTCOD": "CBR", "XCOORD": 149.2, "YCOORD": -35.31667 }, "geometry": { "type": "Point", "coordinates": [ 149.199999839999975, -35.31666996 ] } }
,
{ "type": "Feature", "properties": { "NAME": "CANOBIE", "COUNTRY": "AUSTRALIA", "ADDTLPLACE": null, "AIRPORTCOD": "CBY", "XCOORD": 140.93333, "YCOORD": -19.48333 }, "geometry": { "type": "Point", "coordinates": [ 140.933329919999977, -19.48332996 ] } }
,
{ "type": "Feature", "properties": { "NAME": "CAPE FLATTERY", "COUNTRY": "AUSTRALIA", "ADDTLPLACE": null, "AIRPORTCOD": "CQP", "XCOORD": 147.5, "YCOORD": -18.2 }, "geometry": { "type": "Point", "coordinates": [ 147.49999992, -18.19999998 ] } }
,
{ "type": "Feature", "properties": { "NAME": "CAPE LEVEQUE", "COUNTRY": "AUSTRALIA", "ADDTLPLACE": null, "AIRPORTCOD": "CLV", "XCOORD": 122.93333, "YCOORD": -16.4 }, "geometry": { "type": "Point", "coordinates": [ 122.93332992, -16.39999998 ] } }
,
{ "type": "Feature", "properties": { "NAME": "CAPE YORK", "COUNTRY": "AUSTRALIA", "ADDTLPLACE": "BAMAGA", "AIRPORTCOD": "ABM", "XCOORD": 142.4, "YCOORD": -10.86667 }, "geometry": { "type": "Point", "coordinates": [ 142.40000016, -10.86667002 ] } }
,
{ "type": "Feature", "properties": { "NAME": "CARLTON HILL", "COUNTRY": "AUSTRALIA", "ADDTLPLACE": null, "AIRPORTCOD": "CRY", "XCOORD": 128.53333, "YCOORD": -15.5 }, "geometry": { "type": "Point", "coordinates": [ 128.533330079999985, -15.49999998 ] } }
,
{ "type": "Feature", "properties": { "NAME": "CARNARVON", "COUNTRY": "AUSTRALIA", "ADDTLPLACE": null, "AIRPORTCOD": "CVQ", "XCOORD": 113.66667, "YCOORD": -24.88333 }, "geometry": { "type": "Point", "coordinates": [ 113.66667, -24.88332996 ] } }
,
{ "type": "Feature", "properties": { "NAME": "CARPENTARIA DOWNS", "COUNTRY": "AUSTRALIA", "ADDTLPLACE": null, "AIRPORTCOD": "CFP", "XCOORD": 144.35, "YCOORD": -18.78333 }, "geometry": { "type": "Point", "coordinates": [ 144.349999919999988, -18.78333003 ] } }
,
{ "type": "Feature", "properties": { "NAME": "CASINO", "COUNTRY": "AUSTRALIA", "ADDTLPLACE": null, "AIRPORTCOD": "CSI", "XCOORD": 153.06667, "YCOORD": -28.88333 }, "geometry": { "type": "Point", "coordinates": [ 153.066669839999975, -28.88333001 ] } }
,
{ "type": "Feature", "properties": { "NAME": "CATTLE CREEK", "COUNTRY": "AUSTRALIA", "ADDTLPLACE": null, "AIRPORTCOD": "CTR", "XCOORD": 131.55, "YCOORD": -17.6 }, "geometry": { "type": "Point", "coordinates": [ 131.55000012, -17.60000004 ] } }
,
{ "type": "Feature", "properties": { "NAME": "CEDUNA", "COUNTRY": "AUSTRALIA", "ADDTLPLACE": "CEDUNA AIRPORT", "AIRPORTCOD": "CED", "XCOORD": 133.68333, "YCOORD": -32.13333 }, "geometry": { "type": "Point", "coordinates": [ 133.68332988, -32.13333 ] } }
,
{ "type": "Feature", "properties": { "NAME": "CESSNOCK", "COUNTRY": "AUSTRALIA", "ADDTLPLACE": null, "AIRPORTCOD": "CES", "XCOORD": 151.33333, "YCOORD": -32.78333 }, "geometry": { "type": "Point", "coordinates": [ 151.333329959999986, -32.78332998 ] } }
,
{ "type": "Feature", "properties": { "NAME": "CHARLEVILLE", "COUNTRY": "AUSTRALIA", "ADDTLPLACE": "CHARLEVILLE ARPT", "AIRPORTCOD": "CTL", "XCOORD": 146.26667, "YCOORD": -26.41667 }, "geometry": { "type": "Point", "coordinates": [ 146.26667016, -26.41667004 ] } }
,
{ "type": "Feature", "properties": { "NAME": "CHARTERS TOWERS", "COUNTRY": "AUSTRALIA", "ADDTLPLACE": null, "AIRPORTCOD": "CXT", "XCOORD": 146.26667, "YCOORD": -20.05 }, "geometry": { "type": "Point", "coordinates": [ 146.26667016, -20.05000002 ] } }
,
{ "type": "Feature", "properties": { "NAME": "CHERRABUN", "COUNTRY": "AUSTRALIA", "ADDTLPLACE": null, "AIRPORTCOD": "CBC", "XCOORD": 125.55, "YCOORD": -18.91667 }, "geometry": { "type": "Point", "coordinates": [ 125.55, -18.91666998 ] } }
,
{ "type": "Feature", "properties": { "NAME": "CHILLAGOE", "COUNTRY": "AUSTRALIA", "ADDTLPLACE": null, "AIRPORTCOD": "LLG", "XCOORD": 144.53333, "YCOORD": -17.13333 }, "geometry": { "type": "Point", "coordinates": [ 144.53332992, -17.13332997 ] } }
,
{ "type": "Feature", "properties": { "NAME": "CHRISTMAS CREEK", "COUNTRY": "AUSTRALIA", "ADDTLPLACE": null, "AIRPORTCOD": "CXQ", "XCOORD": 125.91667, "YCOORD": -18.88333 }, "geometry": { "type": "Point", "coordinates": [ 125.916670079999989, -18.88333002 ] } }
,
{ "type": "Feature", "properties": { "NAME": "CHRISTMAS ISLAND", "COUNTRY": "AUSTRALIA", "ADDTLPLACE": "CHRISTMAS ISL (PVT)", "AIRPORTCOD": "XCH", "XCOORD": 105.68333, "YCOORD": -10.45 }, "geometry": { "type": "Point", "coordinates": [ 105.68333016, -10.44999999 ] } }
,
{ "type": "Feature", "properties": { "NAME": "CLERMONT", "COUNTRY": "AUSTRALIA", "ADDTLPLACE": null, "AIRPORTCOD": "CMQ", "XCOORD": 147.61667, "YCOORD": -22.78333 }, "geometry": { "type": "Point", "coordinates": [ 147.616670159999984, -22.78332999 ] } }
,
{ "type": "Feature", "properties": { "NAME": "CLEVE", "COUNTRY": "AUSTRALIA", "ADDTLPLACE": null, "AIRPORTCOD": "CVC", "XCOORD": 136.5, "YCOORD": -33.7 }, "geometry": { "type": "Point", "coordinates": [ 136.500000119999982, -33.69999996 ] } }
,
{ "type": "Feature", "properties": { "NAME": "CLIFTON HILLS", "COUNTRY": "AUSTRALIA", "ADDTLPLACE": null, "AIRPORTCOD": "CFH", "XCOORD": 138.83333, "YCOORD": -26.86667 }, "geometry": { "type": "Point", "coordinates": [ 138.83333004, -26.86667004 ] } }
,
{ "type": "Feature", "properties": { "NAME": "CLONCURRY", "COUNTRY": "AUSTRALIA", "ADDTLPLACE": null, "AIRPORTCOD": "CNJ", "XCOORD": 140.5, "YCOORD": -20.66667 }, "geometry": { "type": "Point", "coordinates": [ 140.500000079999978, -20.66667003 ] } }
,
{ "type": "Feature", "properties": { "NAME": "CLUNY", "COUNTRY": "AUSTRALIA", "ADDTLPLACE": null, "AIRPORTCOD": "CZY", "XCOORD": 139.61667, "YCOORD": -24.51667 }, "geometry": { "type": "Point", "coordinates": [ 139.616669879999989, -24.51666996 ] } }
,
{ "type": "Feature", "properties": { "NAME": "COBAR", "COUNTRY": "AUSTRALIA", "ADDTLPLACE": null, "AIRPORTCOD": "CAZ", "XCOORD": 145.78333, "YCOORD": -31.53333 }, "geometry": { "type": "Point", "coordinates": [ 145.78332984, -31.53332997 ] } }
,
{ "type": "Feature", "properties": { "NAME": "COCOS-KEELING ISLANDS", "COUNTRY": "AUSTRALIA", "ADDTLPLACE": "COCOS ISL INTL ARPT", "AIRPORTCOD": "CCK", "XCOORD": 96.83333, "YCOORD": -12.18333 }, "geometry": { "type": "Point", "coordinates": [ 96.83332992, -12.18332997 ] } }
,
{ "type": "Feature", "properties": { "NAME": "COEN", "COUNTRY": "AUSTRALIA", "ADDTLPLACE": null, "AIRPORTCOD": "CUQ", "XCOORD": 143.11667, "YCOORD": -13.78333 }, "geometry": { "type": "Point", "coordinates": [ 143.116670159999984, -13.78332999 ] } }
,
{ "type": "Feature", "properties": { "NAME": "COFFS HARBOUR", "COUNTRY": "AUSTRALIA", "ADDTLPLACE": "COFFS HARBOUR ARPT", "AIRPORTCOD": "CFS", "XCOORD": 153.11667, "YCOORD": -30.33333 }, "geometry": { "type": "Point", "coordinates": [ 153.116669879999989, -30.33333 ] } }
,
{ "type": "Feature", "properties": { "NAME": "COLAC", "COUNTRY": "AUSTRALIA", "ADDTLPLACE": null, "AIRPORTCOD": "XCO", "XCOORD": 143.58333, "YCOORD": -38.33333 }, "geometry": { "type": "Point", "coordinates": [ 143.58332988, -38.33333001 ] } }
,
{ "type": "Feature", "properties": { "NAME": "COLLARENEBRI", "COUNTRY": "AUSTRALIA", "ADDTLPLACE": null, "AIRPORTCOD": "CRB", "XCOORD": 148.58333, "YCOORD": -29.53333 }, "geometry": { "type": "Point", "coordinates": [ 148.583329919999983, -29.53332999 ] } }
,
{ "type": "Feature", "properties": { "NAME": "COLLIE", "COUNTRY": "AUSTRALIA", "ADDTLPLACE": null, "AIRPORTCOD": "CIE", "XCOORD": 116.15, "YCOORD": -33.35 }, "geometry": { "type": "Point", "coordinates": [ 116.15000004, -33.35000004 ] } }
,
{ "type": "Feature", "properties": { "NAME": "COLLINSVILLE", "COUNTRY": "AUSTRALIA", "ADDTLPLACE": null, "AIRPORTCOD": "KCE", "XCOORD": 147.85, "YCOORD": -20.6 }, "geometry": { "type": "Point", "coordinates": [ 147.849999839999981, -20.60000001 ] } }
,
{ "type": "Feature", "properties": { "NAME": "CONDAMINE", "COUNTRY": "AUSTRALIA", "ADDTLPLACE": null, "AIRPORTCOD": "ONM", "XCOORD": 150.16667, "YCOORD": -26.81667 }, "geometry": { "type": "Point", "coordinates": [ 150.166670039999985, -26.81667 ] } }
,
{ "type": "Feature", "properties": { "NAME": "CONDOBOLIN", "COUNTRY": "AUSTRALIA", "ADDTLPLACE": null, "AIRPORTCOD": "CBX", "XCOORD": 147.2, "YCOORD": -33.06667 }, "geometry": { "type": "Point", "coordinates": [ 147.20000004, -33.06666996 ] } }
,
{ "type": "Feature", "properties": { "NAME": "COOBER PEDY", "COUNTRY": "AUSTRALIA", "ADDTLPLACE": null, "AIRPORTCOD": "CPD", "XCOORD": 134.75, "YCOORD": -29.05 }, "geometry": { "type": "Point", "coordinates": [ 134.750000159999985, -29.05000002 ] } }
,
{ "type": "Feature", "properties": { "NAME": "COOKTOWN", "COUNTRY": "AUSTRALIA", "ADDTLPLACE": null, "AIRPORTCOD": "CTN", "XCOORD": 145.18333, "YCOORD": -15.45 }, "geometry": { "type": "Point", "coordinates": [ 145.18333008, -15.45000003 ] } }
,
{ "type": "Feature", "properties": { "NAME": "COOLAH", "COUNTRY": "AUSTRALIA", "ADDTLPLACE": null, "AIRPORTCOD": "CLH", "XCOORD": 149.66667, "YCOORD": -31.8 }, "geometry": { "type": "Point", "coordinates": [ 149.66667, -31.79999997 ] } }
,
{ "type": "Feature", "properties": { "NAME": "COOLANGATTA", "COUNTRY": "AUSTRALIA", "ADDTLPLACE": "COOLANGATTA AWS AUT", "AIRPORTCOD": "OOL", "XCOORD": 153.5, "YCOORD": -28.16667 }, "geometry": { "type": "Point", "coordinates": [ 153.500000039999975, -28.16667 ] } }
,
{ "type": "Feature", "properties": { "NAME": "COOLAWANYAH", "COUNTRY": "AUSTRALIA", "ADDTLPLACE": null, "AIRPORTCOD": "COY", "XCOORD": 117.75, "YCOORD": -21.8 }, "geometry": { "type": "Point", "coordinates": [ 117.74999988, -21.79999998 ] } }
,
{ "type": "Feature", "properties": { "NAME": "COOLIBAH", "COUNTRY": "AUSTRALIA", "ADDTLPLACE": null, "AIRPORTCOD": "COB", "XCOORD": 130.96667, "YCOORD": -15.56667 }, "geometry": { "type": "Point", "coordinates": [ 130.966670159999978, -15.56667 ] } }
,
{ "type": "Feature", "properties": { "NAME": "COOLULLAH", "COUNTRY": "AUSTRALIA", "ADDTLPLACE": null, "AIRPORTCOD": "WCO", "XCOORD": 140.16667, "YCOORD": -19.81667 }, "geometry": { "type": "Point", "coordinates": [ 140.166669959999979, -19.81666998 ] } }
,
{ "type": "Feature", "properties": { "NAME": "COOMA", "COUNTRY": "AUSTRALIA", "ADDTLPLACE": "COOMA", "AIRPORTCOD": "OOM", "XCOORD": 148.96667, "YCOORD": -36.3 }, "geometry": { "type": "Point", "coordinates": [ 148.966670159999978, -36.29999997 ] } }
,
{ "type": "Feature", "properties": { "NAME": "COONABARABRAN", "COUNTRY": "AUSTRALIA", "ADDTLPLACE": null, "AIRPORTCOD": "COJ", "XCOORD": 149.26667, "YCOORD": -31.33333 }, "geometry": { "type": "Point", "coordinates": [ 149.26667004, -31.33332999 ] } }
,
{ "type": "Feature", "properties": { "NAME": "COONAMBLE", "COUNTRY": "AUSTRALIA", "ADDTLPLACE": null, "AIRPORTCOD": "CNB", "XCOORD": 148.36667, "YCOORD": -30.98333 }, "geometry": { "type": "Point", "coordinates": [ 148.36667004, -30.98332998 ] } }
,
{ "type": "Feature", "properties": { "NAME": "COORABIE", "COUNTRY": "AUSTRALIA", "ADDTLPLACE": null, "AIRPORTCOD": "CRJ", "XCOORD": 132.3, "YCOORD": -31.9 },